[
    {
        "id": "21a914c7-9da5-4906-b95c-b937746bb09a",
        "displayName": "Reuss-Garage",
        "brand": "AVIA",
        "formattedAddress": "Landstrasse, 5412 Gebenstorf",
        "location": {
            "lat": 47.48156,
            "lng": 8.240316
        },
        "providerInfo": {
            "id": "5294",
            "source": "AVIA"
        }
    },
    {
        "id": "115a3d95-2731-4772-b9d3-1d40403b7b57",
        "displayName": "AVIA Station",
        "brand": "AVIA",
        "formattedAddress": "Bernerstr. Nord 182, 8064 Zürich-Altstetten",
        "location": {
            "lat": 47.39516,
            "lng": 8.487084
        },
        "providerInfo": {
            "id": "5295",
            "source": "AVIA"
        }
    },
    {
        "id": "c27acbb5-6143-4775-be4b-58689afacf7c",
        "displayName": "AVIA Shop Bümpliz",
        "brand": "AVIA",
        "formattedAddress": "Bethlehemstr. 123, 3018 Bern-Bümpliz",
        "location": {
            "lat": 46.9433081,
            "lng": 7.4016569
        },
        "providerInfo": {
            "id": "5297",
            "source": "AVIA"
        }
    },
    {
        "id": "caa6019e-e823-4141-9dc5-a0e32868fedf",
        "displayName": "Spar express",
        "brand": "AVIA",
        "formattedAddress": "Bernstr. 209, 3052 Zollikofen",
        "location": {
            "lat": 47.001449,
            "lng": 7.462034
        },
        "providerInfo": {
            "id": "5298",
            "source": "AVIA"
        }
    },
    {
        "id": "c1f98a0d-5087-4c57-a3a4-f85ed6c23765",
        "displayName": "Pneu Bögli AG",
        "brand": "AVIA",
        "formattedAddress": "Gewerbestr. 7, 4528 Zuchwil",
        "location": {
            "lat": 47.201042,
            "lng": 7.573469
        },
        "providerInfo": {
            "id": "5299",
            "source": "AVIA"
        }
    },
    {
        "id": "8c257144-1bf1-498b-8603-a1d01fe89d4d",
        "displayName": "Garage Lerch AG",
        "brand": "AVIA",
        "formattedAddress": "Helblingstr. 2, 4852 Rothrist",
        "location": {
            "lat": 47.309815,
            "lng": 7.893502
        },
        "providerInfo": {
            "id": "5301",
            "source": "AVIA"
        }
    },
    {
        "id": "1b7ed350-fc07-48ae-bf2e-66c62f4652d5",
        "displayName": "Spar express",
        "brand": "AVIA",
        "formattedAddress": "Oltnerstr. 62, 5012 Schönenwerd",
        "location": {
            "lat": 47.368862,
            "lng": 8.000438
        },
        "providerInfo": {
            "id": "5302",
            "source": "AVIA"
        }
    },
    {
        "id": "ae8857e7-c342-4b4d-b416-24a6a9cf13ec",
        "displayName": "Erne & Kalt AG",
        "brand": "AVIA",
        "formattedAddress": "Aarauerstr. 60, 5200 Brugg",
        "location": {
            "lat": 47.4755483,
            "lng": 8.2013624
        },
        "providerInfo": {
            "id": "5303",
            "source": "AVIA"
        }
    },
    {
        "id": "a6a60993-4160-49c7-a58c-62a17b1a4ced",
        "displayName": "AVIA Tankstelle",
        "brand": "AVIA",
        "formattedAddress": "Birrfeldstr. 6, 5244 Birrhard",
        "location": {
            "lat": 47.431644,
            "lng": 8.239816
        },
        "providerInfo": {
            "id": "5304",
            "source": "AVIA"
        }
    },
    {
        "id": "2295d186-26a5-4d36-999e-7ef130d72a08",
        "displayName": "AVIA Shop Neuenhof",
        "brand": "AVIA",
        "formattedAddress": "Zürcherstr. 104, 5432 Neuenhof",
        "location": {
            "lat": 47.451508,
            "lng": 8.324386
        },
        "providerInfo": {
            "id": "5306",
            "source": "AVIA"
        }
    },
    {
        "id": "5de9af84-ee84-488a-bca2-5bed02dc3bdd",
        "displayName": "Gebr. Stierli AG",
        "brand": "AVIA",
        "formattedAddress": "Zugerstr. 12, 5620 Bremgarten",
        "location": {
            "lat": 47.347951,
            "lng": 8.347494
        },
        "providerInfo": {
            "id": "5307",
            "source": "AVIA"
        }
    },
    {
        "id": "227b7e01-7cf0-43a8-9de1-2cfcbf411125",
        "displayName": "Garage Hersan",
        "brand": "AVIA",
        "formattedAddress": "Wohlerstr. 23, 5620 Bremgarten",
        "location": {
            "lat": 47.350379,
            "lng": 8.336047
        },
        "providerInfo": {
            "id": "5308",
            "source": "AVIA"
        }
    },
    {
        "id": "14589fa2-7c4b-4f73-8af7-30bf5c448a41",
        "displayName": "Garage Bircher AG",
        "brand": "AVIA",
        "formattedAddress": "Zugerstr. 77, 6314 Unterägeri",
        "location": {
            "lat": 47.140189,
            "lng": 8.573086
        },
        "providerInfo": {
            "id": "5309",
            "source": "AVIA"
        }
    },
    {
        "id": "1de4c43c-83f6-417d-903b-5e43bf5d17c4",
        "displayName": "S. Morisoli & Figli SA",
        "brand": "AVIA",
        "formattedAddress": "El Stradún 33, 6513 Monte Carasso",
        "location": {
            "lat": 46.188287,
            "lng": 8.99655
        },
        "providerInfo": {
            "id": "5310",
            "source": "AVIA"
        }
    },
    {
        "id": "f9f3c051-a07d-44e9-9f46-d872475148de",
        "displayName": "Stazione AVIA",
        "brand": "AVIA",
        "formattedAddress": "Via Cantonale, 6527 Lodrino",
        "location": {
            "lat": 46.2933056,
            "lng": 8.9829657
        },
        "providerInfo": {
            "id": "5311",
            "source": "AVIA"
        }
    },
    {
        "id": "435b3a0d-aa31-4d22-b5fa-26e8f341a096",
        "displayName": "Garage Vera SA",
        "brand": "AVIA",
        "formattedAddress": "Via Cantonale, 6535 Roveredo",
        "location": {
            "lat": 46.24009,
            "lng": 9.1359
        },
        "providerInfo": {
            "id": "5312",
            "source": "AVIA"
        }
    },
    {
        "id": "8dca6b5a-506e-44f2-ad9c-0c9d0274edde",
        "displayName": "Stazione AVIA",
        "brand": "AVIA",
        "formattedAddress": "Via Cantonale, 6572 Quartino",
        "location": {
            "lat": 46.153615,
            "lng": 8.904222
        },
        "providerInfo": {
            "id": "5313",
            "source": "AVIA"
        }
    },
    {
        "id": "46d9334f-fb82-41d0-9920-fa7872528c02",
        "displayName": "AVIA Shop Ranzo",
        "brand": "AVIA",
        "formattedAddress": "Via Cantonale, 6577 Ranzo",
        "location": {
            "lat": 46.1089736,
            "lng": 8.7653101
        },
        "providerInfo": {
            "id": "5314",
            "source": "AVIA"
        }
    },
    {
        "id": "d374c22b-d23f-41e7-bd22-23a5ee59936d",
        "displayName": "AVIA Shop Claro",
        "brand": "AVIA",
        "formattedAddress": "Strada Cantonale, 6702 Claro",
        "location": {
            "lat": 46.2531657,
            "lng": 9.0201113
        },
        "providerInfo": {
            "id": "5315",
            "source": "AVIA"
        }
    },
    {
        "id": "14beff2e-562e-457d-bb91-a060781602bb",
        "displayName": "Garage Val Sole Sagl",
        "brand": "AVIA",
        "formattedAddress": "Via Cantonale, 6715 Dongio",
        "location": {
            "lat": 46.43137,
            "lng": 8.965992
        },
        "providerInfo": {
            "id": "5316",
            "source": "AVIA"
        }
    },
    {
        "id": "b98cd38c-339f-4e06-9525-ac98fa2dd32e",
        "displayName": "Carrozzeria Torpedo 2000 SA",
        "brand": "AVIA",
        "formattedAddress": "Via Cantonale, 6743 Bodio",
        "location": {
            "lat": 46.375592,
            "lng": 8.917612
        },
        "providerInfo": {
            "id": "5317",
            "source": "AVIA"
        }
    },
    {
        "id": "6f6afc90-76e7-46c7-aca6-a667d192a185",
        "displayName": "Stazione AVIA",
        "brand": "AVIA",
        "formattedAddress": "Via San Gottardo, 6746 Lavorgo",
        "location": {
            "lat": 46.4399741,
            "lng": 8.8417406
        },
        "providerInfo": {
            "id": "5318",
            "source": "AVIA"
        }
    },
    {
        "id": "f5de2b6c-c7f6-45f0-8436-03deebdb9360",
        "displayName": "Garage Karpf + Co.",
        "brand": "AVIA",
        "formattedAddress": "Via Cantonale 1a, 6760 Faido",
        "location": {
            "lat": 46.479015,
            "lng": 8.7956144
        },
        "providerInfo": {
            "id": "5319",
            "source": "AVIA"
        }
    },
    {
        "id": "1c99080f-d159-495e-b439-9932003172c9",
        "displayName": "Stazione AVIA",
        "brand": "AVIA",
        "formattedAddress": "Via Cantonale, 6802 Rivera",
        "location": {
            "lat": 46.120675,
            "lng": 8.92704
        },
        "providerInfo": {
            "id": "5321",
            "source": "AVIA"
        }
    },
    {
        "id": "f3862732-a93d-4b4a-b316-c482b36e29db",
        "displayName": "Carrozzeria San Giovanni SA",
        "brand": "AVIA",
        "formattedAddress": "Via Campagna Adorna 13, 6850 Mendrisio",
        "location": {
            "lat": 45.862217,
            "lng": 8.972931
        },
        "providerInfo": {
            "id": "5322",
            "source": "AVIA"
        }
    },
    {
        "id": "89cdb07d-1ad6-4430-816f-27f140a23cf0",
        "displayName": "Garage Dario Branchi Sagl",
        "brand": "AVIA",
        "formattedAddress": "Via Pian Scairolo  13, 6915 Noranco",
        "location": {
            "lat": 45.983692,
            "lng": 8.931195
        },
        "providerInfo": {
            "id": "5323",
            "source": "AVIA"
        }
    },
    {
        "id": "91777586-8d7e-4d36-9b09-efef379a17a7",
        "displayName": "AVIA Magliaso",
        "brand": "AVIA",
        "formattedAddress": "Via Cantonale 51, 6983 Magliaso",
        "location": {
            "lat": 45.982948,
            "lng": 8.8858
        },
        "providerInfo": {
            "id": "5324",
            "source": "AVIA"
        }
    },
    {
        "id": "2b18a7fb-20a7-44f4-aaa1-094c01f83873",
        "displayName": "AVIA Tankstelle",
        "brand": "AVIA",
        "formattedAddress": "Isla, 7405 Rothenbrunnen",
        "location": {
            "lat": 46.7654053,
            "lng": 9.424757
        },
        "providerInfo": {
            "id": "5326",
            "source": "AVIA"
        }
    },
    {
        "id": "3fff7e10-c645-428e-ba0e-acdc2e1bd13a",
        "displayName": "AVIA Tankstelle",
        "brand": "AVIA",
        "formattedAddress": "Genfer-/Dreikönigstrasse, 8002 Zürich-Enge",
        "location": {
            "lat": 47.366182,
            "lng": 8.533572
        },
        "providerInfo": {
            "id": "5327",
            "source": "AVIA"
        }
    },
    {
        "id": "d66178e6-e4ab-4bb0-9ab6-614e8968a509",
        "displayName": "Franz AG",
        "brand": "AVIA",
        "formattedAddress": "Badenerstr. 329, 8003 Zürich-Albisrieden",
        "location": {
            "lat": 47.377476,
            "lng": 8.511674
        },
        "providerInfo": {
            "id": "5328",
            "source": "AVIA"
        }
    },
    {
        "id": "d21ef27e-cff4-4b90-9958-6be824bfad50",
        "displayName": "AVIA Tankstelle",
        "brand": "AVIA",
        "formattedAddress": "Hardturmstr. 319, 8005 Zürich-Industrie",
        "location": {
            "lat": 47.393683,
            "lng": 8.506079
        },
        "providerInfo": {
            "id": "5330",
            "source": "AVIA"
        }
    },
    {
        "id": "1f6af8b6-c2c0-4aa8-b8bf-ae3afae1baa9",
        "displayName": "Garage Resegatti GmbH",
        "brand": "AVIA",
        "formattedAddress": "Fellenbergstr. 289a, 8047 Zürich-Albisrieden",
        "location": {
            "lat": 47.37521,
            "lng": 8.49017
        },
        "providerInfo": {
            "id": "5332",
            "source": "AVIA"
        }
    },
    {
        "id": "26dd9f37-efb2-48d6-96a1-bc3df520dac3",
        "displayName": "Garage Zwicky AG",
        "brand": "AVIA",
        "formattedAddress": "Riedhofstr. 3, 8049 Zürich-Höngg",
        "location": {
            "lat": 47.403546,
            "lng": 8.496751
        },
        "providerInfo": {
            "id": "5334",
            "source": "AVIA"
        }
    },
    {
        "id": "4c83bdc3-b22e-4dd7-bbac-3347af311d5d",
        "displayName": "AVIA Shop Regensberg",
        "brand": "AVIA",
        "formattedAddress": "Regensbergstr. 309, 8050 Zürich-Affoltern",
        "location": {
            "lat": 47.411375,
            "lng": 8.526469
        },
        "providerInfo": {
            "id": "5335",
            "source": "AVIA"
        }
    },
    {
        "id": "fe9e716e-4ba1-4aa9-80f1-fad018956b55",
        "displayName": "AVIA Tankstelle",
        "brand": "AVIA",
        "formattedAddress": "Birmensdorferstr. 256, 8055 Zürich-Wiedikon",
        "location": {
            "lat": 47.370299,
            "lng": 8.512509
        },
        "providerInfo": {
            "id": "5336",
            "source": "AVIA"
        }
    },
    {
        "id": "d0abff40-cf7d-4c09-8880-73e1c6156a1d",
        "displayName": "AVIA Tankstelle",
        "brand": "AVIA",
        "formattedAddress": "Birmensdorferstr. 12, 8142 Uitikon-Waldegg",
        "location": {
            "lat": 47.36869,
            "lng": 8.46369
        },
        "providerInfo": {
            "id": "5337",
            "source": "AVIA"
        }
    },
    {
        "id": "01f7eb82-d976-4ed1-8d9a-e882b43b0b54",
        "displayName": "AVIA Tankstelle",
        "brand": "AVIA",
        "formattedAddress": "Zürcherstr. 1, 8172 Niederglatt",
        "location": {
            "lat": 47.491086,
            "lng": 8.50347
        },
        "providerInfo": {
            "id": "5338",
            "source": "AVIA"
        }
    },
    {
        "id": "31dbe315-3ab9-46f3-be05-fb52c5976b3e",
        "displayName": "Spar express",
        "brand": "AVIA",
        "formattedAddress": "Hochstr. 122, 8200 Schaffhausen",
        "location": {
            "lat": 47.707454,
            "lng": 8.637763
        },
        "providerInfo": {
            "id": "5339",
            "source": "AVIA"
        }
    },
    {
        "id": "7c6cacbb-e5ea-4a88-b609-9008521ce3d0",
        "displayName": "AVIA Neuhausen",
        "brand": "AVIA",
        "formattedAddress": "Klettgauerstr. 6a, 8212 Neuhausen",
        "location": {
            "lat": 47.682808,
            "lng": 8.6159778
        },
        "providerInfo": {
            "id": "5340",
            "source": "AVIA"
        }
    },
    {
        "id": "47b45fd7-8fb0-4382-a79a-9eec2f44d57b",
        "displayName": "Wyland-Garage",
        "brand": "AVIA",
        "formattedAddress": "Hauptstr. 97, 8217 Wilchingen",
        "location": {
            "lat": 47.671535,
            "lng": 8.464405
        },
        "providerInfo": {
            "id": "5341",
            "source": "AVIA"
        }
    },
    {
        "id": "2921af45-c032-49d4-afe9-b3b356b59b10",
        "displayName": "Spar express",
        "brand": "AVIA",
        "formattedAddress": "Frauenfelderstr. 44, 8404 Winterthur",
        "location": {
            "lat": 47.506314,
            "lng": 8.756916
        },
        "providerInfo": {
            "id": "5343",
            "source": "AVIA"
        }
    },
    {
        "id": "91125aaa-dc40-446d-832b-776ecd6e88f7",
        "displayName": "Spar express",
        "brand": "AVIA",
        "formattedAddress": "St. Gallerstr. 106, 8404 Winterthur",
        "location": {
            "lat": 47.498041,
            "lng": 8.747114
        },
        "providerInfo": {
            "id": "5344",
            "source": "AVIA"
        }
    },
    {
        "id": "b8f686c4-a371-4f4d-8097-1249822f5daa",
        "displayName": "Garage Bosshard AG",
        "brand": "AVIA",
        "formattedAddress": "Dorfstr. 58, 8484 Weisslingen",
        "location": {
            "lat": 47.434713,
            "lng": 8.763865
        },
        "providerInfo": {
            "id": "5345",
            "source": "AVIA"
        }
    },
    {
        "id": "3d26c53d-3ec5-4d6d-a9d5-c0d854dd71e8",
        "displayName": "Garage Minoretti AG",
        "brand": "AVIA",
        "formattedAddress": "Zürichstr. 44, 8600 Dübendorf",
        "location": {
            "lat": 47.396572,
            "lng": 8.6116
        },
        "providerInfo": {
            "id": "5346",
            "source": "AVIA"
        }
    },
    {
        "id": "dfa86dc5-b8ff-4a93-a41c-f138ff8c27d2",
        "displayName": "Franz AG",
        "brand": "AVIA",
        "formattedAddress": "Landstr. 71, 8750 Glarus",
        "location": {
            "lat": 47.049631,
            "lng": 9.059784
        },
        "providerInfo": {
            "id": "5348",
            "source": "AVIA"
        }
    },
    {
        "id": "15806186-7d1a-4afe-89b9-51f9e620fcd6",
        "displayName": "Auto Küry AG",
        "brand": "AVIA",
        "formattedAddress": "Moosstr. 9, 8803 Rüschlikon",
        "location": {
            "lat": 47.302738,
            "lng": 8.546471
        },
        "providerInfo": {
            "id": "5349",
            "source": "AVIA"
        }
    },
    {
        "id": "35d09211-ca4e-446e-8584-be03a8a554a0",
        "displayName": "Seegarage Müller AG",
        "brand": "AVIA",
        "formattedAddress": "Seestr. 340, 8810 Horgen",
        "location": {
            "lat": 47.253033,
            "lng": 8.6194
        },
        "providerInfo": {
            "id": "5350",
            "source": "AVIA"
        }
    },
    {
        "id": "8e2ca1d0-40bf-42ea-b965-d390784386d9",
        "displayName": "Yachtwerft Faul AG (nur Boote)",
        "brand": "AVIA",
        "formattedAddress": "Seestr. 5, 8810 Horgen",
        "location": {
            "lat": 47.269796,
            "lng": 8.587008
        },
        "providerInfo": {
            "id": "5351",
            "source": "AVIA"
        }
    },
    {
        "id": "7f1518b5-f85e-4948-a9f6-47bb1c3673e4",
        "displayName": "Spar Express",
        "brand": "AVIA",
        "formattedAddress": "Linth-Escherstr. 19 a, 8865 Bilten",
        "location": {
            "lat": 47.151648,
            "lng": 9.028236
        },
        "providerInfo": {
            "id": "5352",
            "source": "AVIA"
        }
    },
    {
        "id": "34ee2c07-246e-47a5-b3b7-dcb8fb844912",
        "displayName": "AVIA Tankstelle",
        "brand": "AVIA",
        "formattedAddress": "Kelleramtstr. 9, 8905 Arni",
        "location": {
            "lat": 47.317206,
            "lng": 8.41681
        },
        "providerInfo": {
            "id": "5353",
            "source": "AVIA"
        }
    },
    {
        "id": "df439350-1a5b-4ab4-b384-eff2b907047d",
        "displayName": "Franz AG",
        "brand": "AVIA",
        "formattedAddress": "Moosstr. 31, 8907 Wettswil",
        "location": {
            "lat": 47.335045,
            "lng": 8.468266
        },
        "providerInfo": {
            "id": "5354",
            "source": "AVIA"
        }
    },
    {
        "id": "47c882e1-66d4-4766-8429-201835d3de5d",
        "displayName": "auto-gretener AG",
        "brand": "AVIA",
        "formattedAddress": "Zürichstr. 193, 8910 Affoltern a.A.",
        "location": {
            "lat": 47.288743,
            "lng": 8.451389
        },
        "providerInfo": {
            "id": "5355",
            "source": "AVIA"
        }
    },
    {
        "id": "ff2caf58-9972-446e-8a66-de8a0566f5e1",
        "displayName": "AVIA Tankstelle",
        "brand": "AVIA",
        "formattedAddress": "Lerzenstr. 7, 8953 Dietikon",
        "location": {
            "lat": 47.415353,
            "lng": 8.401532
        },
        "providerInfo": {
            "id": "5356",
            "source": "AVIA"
        }
    },
    {
        "id": "c1f35db7-d009-4adb-a909-b9cf25f87a55",
        "displayName": "Fleuben-Garage AG",
        "brand": "AVIA",
        "formattedAddress": "Oberrieterstr. 61, 9450 Altstätten",
        "location": {
            "lat": 47.36605,
            "lng": 9.55428
        },
        "providerInfo": {
            "id": "5358",
            "source": "AVIA"
        }
    },
    {
        "id": "488dab1c-02ff-4c63-8d83-8b48b7eebbce",
        "displayName": "AVIA  Tankstelle",
        "brand": "AVIA",
        "formattedAddress": "Rte de la Maladière 44, 1022 Chavannes-près-Renens",
        "location": {
            "lat": 46.52684,
            "lng": 6.581
        },
        "providerInfo": {
            "id": "5359",
            "source": "AVIA"
        }
    },
    {
        "id": "86d70be7-ad54-46aa-976b-6228537c03f0",
        "displayName": "AVIA Tankstelle",
        "brand": "AVIA",
        "formattedAddress": "Place de Coppoz  6, 1052 Le Mont-sur-Lausanne",
        "location": {
            "lat": 46.559206,
            "lng": 6.636115
        },
        "providerInfo": {
            "id": "5362",
            "source": "AVIA"
        }
    },
    {
        "id": "a886013e-d4d6-464a-86d0-97c5912a99b9",
        "displayName": "Avia station",
        "brand": "AVIA",
        "formattedAddress": "Route de Montheron 2, 1053 Cugy",
        "location": {
            "lat": 46.590099,
            "lng": 6.643812
        },
        "providerInfo": {
            "id": "5363",
            "source": "AVIA"
        }
    },
    {
        "id": "44ca3f0f-33c0-4fae-95a3-24531c8e69e8",
        "displayName": "AVIA Shop Tankstelle",
        "brand": "AVIA",
        "formattedAddress": "Route de Morrens  2, 1053 Cugy",
        "location": {
            "lat": 46.587736,
            "lng": 6.641662
        },
        "providerInfo": {
            "id": "5364",
            "source": "AVIA"
        }
    },
    {
        "id": "9f827040-1779-4481-8fb3-975da3ef0584",
        "displayName": "Avia station",
        "brand": "AVIA",
        "formattedAddress": "Route de Berne 228, 1066 Epalinges",
        "location": {
            "lat": 46.549465,
            "lng": 6.676825
        },
        "providerInfo": {
            "id": "5365",
            "source": "AVIA"
        }
    },
    {
        "id": "339fd009-d732-4084-aeac-8672669b1d82",
        "displayName": "AVIA Shop Tankstelle",
        "brand": "AVIA",
        "formattedAddress": "Route sous-la-Ville 2, 1070 Puidoux",
        "location": {
            "lat": 46.491646,
            "lng": 6.769415
        },
        "providerInfo": {
            "id": "5366",
            "source": "AVIA"
        }
    },
    {
        "id": "d96e1a76-d9c1-4287-a76c-4c34701f26e0",
        "displayName": "AVIA Shop Tankstelle",
        "brand": "AVIA",
        "formattedAddress": "Route de Moudon 13, 1072 Forel-Lavaux",
        "location": {
            "lat": 46.553462,
            "lng": 6.777948
        },
        "providerInfo": {
            "id": "5367",
            "source": "AVIA"
        }
    },
    {
        "id": "4d5cb16a-e7f7-4d56-8e66-913adfe2f87f",
        "displayName": "AVIA Morges",
        "brand": "AVIA",
        "formattedAddress": "Route de Lausanne 71, 1110 Morges",
        "location": {
            "lat": 46.51747,
            "lng": 6.511533
        },
        "providerInfo": {
            "id": "5368",
            "source": "AVIA"
        }
    },
    {
        "id": "f8dd49aa-a7cf-4548-accc-4370f5a5a5ea",
        "displayName": "AVIA Tankstelle",
        "brand": "AVIA",
        "formattedAddress": "Rue Borgeaud 10, 1196 Gland",
        "location": {
            "lat": 46.423531,
            "lng": 6.262344
        },
        "providerInfo": {
            "id": "5370",
            "source": "AVIA"
        }
    },
    {
        "id": "41ea7cb6-0781-4e43-b0be-a4fcc008a552",
        "displayName": "AVIA Tankstelle ",
        "brand": "AVIA",
        "formattedAddress": "Ch. de la Voie Creuse, 1202 Genève",
        "location": {
            "lat": 46.219395,
            "lng": 6.142869
        },
        "providerInfo": {
            "id": "5371",
            "source": "AVIA"
        }
    },
    {
        "id": "46fd80e3-24da-471d-a38c-407bf4c5537e",
        "displayName": "AVIA Tankstelle",
        "brand": "AVIA",
        "formattedAddress": "Rue Marc-Monnier 6, 1206 Genève",
        "location": {
            "lat": 46.194809,
            "lng": 6.152
        },
        "providerInfo": {
            "id": "5373",
            "source": "AVIA"
        }
    },
    {
        "id": "7f4423fe-ab80-4607-ad33-e2e27873e93f",
        "displayName": "AVIA Tankstelle",
        "brand": "AVIA",
        "formattedAddress": "Rue des Bossons 106, 1213 Petit-Lancy",
        "location": {
            "lat": 46.188663,
            "lng": 6.111492
        },
        "providerInfo": {
            "id": "5374",
            "source": "AVIA"
        }
    },
    {
        "id": "f4b16881-25f0-456a-a50f-27db25ff7393",
        "displayName": "AVIA Tankstelle",
        "brand": "AVIA",
        "formattedAddress": "Rue de Livron 11, 1217 Meyrin",
        "location": {
            "lat": 46.230613,
            "lng": 6.080624
        },
        "providerInfo": {
            "id": "5375",
            "source": "AVIA"
        }
    },
    {
        "id": "63fd27d7-80f5-495a-b711-8e5a2ee1ec89",
        "displayName": "AVIA Tankstelle",
        "brand": "AVIA",
        "formattedAddress": "Ch. J.-J. Rigaud 34, 1224 Chêne-Bougeries",
        "location": {
            "lat": 46.198416,
            "lng": 6.184915
        },
        "providerInfo": {
            "id": "5376",
            "source": "AVIA"
        }
    },
    {
        "id": "a0ddf71d-cd02-41fc-a573-ff6d50607f43",
        "displayName": "AVIA Shop Tankstelle",
        "brand": "AVIA",
        "formattedAddress": "Rue Jacques-Grosselin 15, 1227 Carouge-Genève",
        "location": {
            "lat": 46.184526,
            "lng": 6.135782
        },
        "providerInfo": {
            "id": "5377",
            "source": "AVIA"
        }
    },
    {
        "id": "b96fc09b-884a-4a54-833a-54b1f94e364e",
        "displayName": "AVIA Shop Tankstelle",
        "brand": "AVIA",
        "formattedAddress": "Rte de Chancy 404, 1236 Cartigny",
        "location": {
            "lat": 46.163737,
            "lng": 6.019628
        },
        "providerInfo": {
            "id": "5378",
            "source": "AVIA"
        }
    },
    {
        "id": "71080e1e-a2f6-49c6-89e8-0d450e0aa14f",
        "displayName": "AVIA Tankstelle",
        "brand": "AVIA",
        "formattedAddress": "Rue des Moulières 5, 1242 Satigny",
        "location": {
            "lat": 46.21756,
            "lng": 6.061248
        },
        "providerInfo": {
            "id": "5379",
            "source": "AVIA"
        }
    },
    {
        "id": "e9eeaf1c-17f4-4146-b1ba-2549d67069a4",
        "displayName": "AVIA Tankstelle",
        "brand": "AVIA",
        "formattedAddress": "Route de l'Etraz, 1267 Vich",
        "location": {
            "lat": 46.425608,
            "lng": 6.254653
        },
        "providerInfo": {
            "id": "5380",
            "source": "AVIA"
        }
    },
    {
        "id": "4b7823ef-b5c3-4364-bab7-75687553900b",
        "displayName": "AVIA Shop Tankstelle",
        "brand": "AVIA",
        "formattedAddress": "Route Blanche 1, 1274 Signy",
        "location": {
            "lat": 46.399891,
            "lng": 6.204589
        },
        "providerInfo": {
            "id": "5381",
            "source": "AVIA"
        }
    },
    {
        "id": "c6db5898-dd96-4033-9fcb-ad88c9630c4f",
        "displayName": "AVIA Tankstelle",
        "brand": "AVIA",
        "formattedAddress": "Route de Verbois 59, 1281 Russin",
        "location": {
            "lat": 46.193132,
            "lng": 6.016969
        },
        "providerInfo": {
            "id": "5382",
            "source": "AVIA"
        }
    },
    {
        "id": "52de3a4f-bb65-43b6-ad8e-c2e4807fd527",
        "displayName": "AVIA Tankstelle",
        "brand": "AVIA",
        "formattedAddress": "Route Suisse 4, 1297 Founex",
        "location": {
            "lat": 46.331658,
            "lng": 6.201996
        },
        "providerInfo": {
            "id": "5383",
            "source": "AVIA"
        }
    },
    {
        "id": "fde82b7f-8bb5-4805-937e-9a2376932201",
        "displayName": "AVIA station",
        "brand": "AVIA",
        "formattedAddress": "Z.I. Les Ducats 1, 1350 Orbe",
        "location": {
            "lat": 46.722362,
            "lng": 6.544746
        },
        "providerInfo": {
            "id": "5384",
            "source": "AVIA"
        }
    },
    {
        "id": "7b3d2c68-4e15-4967-9018-53711725d03d",
        "displayName": "AVIA Tankstelle",
        "brand": "AVIA",
        "formattedAddress": "Route de Lausanne 1, 1400 Yverdon-Les-Bains",
        "location": {
            "lat": 46.769046,
            "lng": 6.652666
        },
        "providerInfo": {
            "id": "5387",
            "source": "AVIA"
        }
    },
    {
        "id": "25556611-2d92-4377-b970-69d9d9bdbfab",
        "displayName": "AVIA Tankstelle",
        "brand": "AVIA",
        "formattedAddress": "Av. de Préville 1b, 1510 Moudon",
        "location": {
            "lat": 46.668175,
            "lng": 6.801005
        },
        "providerInfo": {
            "id": "5388",
            "source": "AVIA"
        }
    },
    {
        "id": "b7dfff09-4154-4d18-a2a5-d7680a584572",
        "displayName": "AVIA Tankstelle",
        "brand": "AVIA",
        "formattedAddress": "Route de Lausanne 2, 1580 Avenches",
        "location": {
            "lat": 46.878719,
            "lng": 7.038174
        },
        "providerInfo": {
            "id": "5389",
            "source": "AVIA"
        }
    },
    {
        "id": "feb9b21c-42f3-4947-9667-e23b371a1bf6",
        "displayName": "Avia Tankstelle",
        "brand": "AVIA",
        "formattedAddress": "Les Chenevières, 1586 Vallamand",
        "location": {
            "lat": 46.924646,
            "lng": 7.033765
        },
        "providerInfo": {
            "id": "5390",
            "source": "AVIA"
        }
    },
    {
        "id": "bfac33f9-993d-4ff3-b66d-17f34b754eb0",
        "displayName": "AVIA Tankstelle",
        "brand": "AVIA",
        "formattedAddress": "Route de Flendruz  22, 1659 Rougemont",
        "location": {
            "lat": 46.487061,
            "lng": 7.202971
        },
        "providerInfo": {
            "id": "5391",
            "source": "AVIA"
        }
    },
    {
        "id": "d6f38c38-6b4f-4fca-9887-1521b1e9e2d2",
        "displayName": "AVIA Tankstelle",
        "brand": "AVIA",
        "formattedAddress": "Hauptstr. 15, 1713 St. Antoni",
        "location": {
            "lat": 46.82225311,
            "lng": 7.25711685
        },
        "providerInfo": {
            "id": "5392",
            "source": "AVIA"
        }
    },
    {
        "id": "36f1d374-425d-420f-a213-fd9e453a7f11",
        "displayName": "AVIA Tankstelle",
        "brand": "AVIA",
        "formattedAddress": "Rue du Lac 133, 1815 Clarens",
        "location": {
            "lat": 46.442129,
            "lng": 6.887367
        },
        "providerInfo": {
            "id": "5393",
            "source": "AVIA"
        }
    },
    {
        "id": "663ffeb0-b406-4b29-b0c6-aad1e289ff22",
        "displayName": "AVIA Tankstelle",
        "brand": "AVIA",
        "formattedAddress": "Route du Chablais 60, 1869 Massongex",
        "location": {
            "lat": 46.243697,
            "lng": 6.984172
        },
        "providerInfo": {
            "id": "5395",
            "source": "AVIA"
        }
    },
    {
        "id": "0b008c0d-0dfb-4f4f-9e73-a7740edf90dd",
        "displayName": "AVIA Tankstelle",
        "brand": "AVIA",
        "formattedAddress": "Route Cantonale 12, 1897 Les Evouettes",
        "location": {
            "lat": 46.361112,
            "lng": 6.878251
        },
        "providerInfo": {
            "id": "5396",
            "source": "AVIA"
        }
    },
    {
        "id": "cf905312-b48f-42f8-81b7-4ddf08699500",
        "displayName": "AVIA Tankstelle",
        "brand": "AVIA",
        "formattedAddress": "Rue de la Rosière 2, 2000 Neuchâtel",
        "location": {
            "lat": 46.99178,
            "lng": 6.91725
        },
        "providerInfo": {
            "id": "5398",
            "source": "AVIA"
        }
    },
    {
        "id": "e4e9224f-27d8-4354-861f-1ad67ba0c313",
        "displayName": "AVIA Tankstelle",
        "brand": "AVIA",
        "formattedAddress": "Port-de-la-Côte 2, 2012 Auvernier",
        "location": {
            "lat": 46.975053,
            "lng": 6.878248
        },
        "providerInfo": {
            "id": "5399",
            "source": "AVIA"
        }
    },
    {
        "id": "593768f8-816a-4d6e-9a25-e3525842ec62",
        "displayName": "AVIA Tankstelle",
        "brand": "AVIA",
        "formattedAddress": "Stock 7, 3924 St. Niklaus",
        "location": {
            "lat": 46.171034,
            "lng": 7.800537
        },
        "providerInfo": {
            "id": "5401",
            "source": "AVIA"
        }
    },
    {
        "id": "dc3e9740-8b80-48c1-aa0d-d00d4fedc96f",
        "displayName": "AVIA Tankstelle",
        "brand": "AVIA",
        "formattedAddress": "Bahnhofstr. 38, 6312 Steinhausen",
        "location": {
            "lat": 47.196797,
            "lng": 8.48111
        },
        "providerInfo": {
            "id": "5404",
            "source": "AVIA"
        }
    },
    {
        "id": "3642d00c-ee32-49c4-9862-b92eeb02b2d3",
        "displayName": "AVIA Tankstelle",
        "brand": "AVIA",
        "formattedAddress": "Edlibachstr. 40, 6345 Neuheim",
        "location": {
            "lat": 47.195041,
            "lng": 8.571676
        },
        "providerInfo": {
            "id": "5405",
            "source": "AVIA"
        }
    },
    {
        "id": "8767e960-42b7-4db8-b6a9-e8c4afd763a8",
        "displayName": "AVIA Tankstelle",
        "brand": "AVIA",
        "formattedAddress": "St. Gallerstr. 33, 8352 Räterschen",
        "location": {
            "lat": 47.499008,
            "lng": 8.792892
        },
        "providerInfo": {
            "id": "5406",
            "source": "AVIA"
        }
    },
    {
        "id": "aa24600c-96e6-4639-9622-6f5d22f6adb4",
        "displayName": "AVIA Tankstelle",
        "brand": "AVIA",
        "formattedAddress": "Hauptstr. 1, 8756 Mitlödi",
        "location": {
            "lat": 47.008178,
            "lng": 9.078366
        },
        "providerInfo": {
            "id": "5407",
            "source": "AVIA"
        }
    },
    {
        "id": "e8da9141-0cbf-4a22-8ffb-63f274472eec",
        "displayName": "AVIA Tankstelle",
        "brand": "AVIA",
        "formattedAddress": "Seestr. 177, 8800 Thalwil",
        "location": {
            "lat": 47.300802,
            "lng": 8.562291
        },
        "providerInfo": {
            "id": "5408",
            "source": "AVIA"
        }
    },
    {
        "id": "e050319d-3c20-4452-8866-246e25536268",
        "displayName": "AVIA Tankstelle",
        "brand": "AVIA",
        "formattedAddress": "Riedhofstr. 2, 8804 Au-Wädenswil",
        "location": {
            "lat": 47.245692,
            "lng": 8.648028
        },
        "providerInfo": {
            "id": "5409",
            "source": "AVIA"
        }
    },
    {
        "id": "f501730d-03c6-498d-85d7-cf9985ee9be1",
        "displayName": "AVIA Shop Tankstelle",
        "brand": "AVIA",
        "formattedAddress": "Seestr. 73, 8805 Richterswil",
        "location": {
            "lat": 47.213943,
            "lng": 8.700378
        },
        "providerInfo": {
            "id": "5410",
            "source": "AVIA"
        }
    },
    {
        "id": "d4046425-9830-4e90-8026-bb90b2ca13c1",
        "displayName": "AVIA Tankstelle",
        "brand": "AVIA",
        "formattedAddress": "Alte Zugerstr. 4, 8820 Wädenswil",
        "location": {
            "lat": 47.23448338,
            "lng": 8.63615382
        },
        "providerInfo": {
            "id": "5411",
            "source": "AVIA"
        }
    },
    {
        "id": "b11f866a-74a2-4936-b0e4-0f094b100cd3",
        "displayName": "AVIA Shop Tankstelle",
        "brand": "AVIA",
        "formattedAddress": "Zugerstr. 41, 8820 Wädenswil",
        "location": {
            "lat": 47.229926,
            "lng": 8.66733
        },
        "providerInfo": {
            "id": "5412",
            "source": "AVIA"
        }
    },
    {
        "id": "a063c9dd-3885-4dc3-83b5-324346dad1ef",
        "displayName": "AVIA Tankstelle",
        "brand": "AVIA",
        "formattedAddress": "Hüttnerstr. 25, 8824 Schönenberg",
        "location": {
            "lat": 47.190121,
            "lng": 8.645947
        },
        "providerInfo": {
            "id": "5413",
            "source": "AVIA"
        }
    },
    {
        "id": "502e569e-fd3a-4193-aa1b-ababe594dbe9",
        "displayName": "AVIA Tankstelle",
        "brand": "AVIA",
        "formattedAddress": "Etzelstr. 41, 8840 Einsiedeln",
        "location": {
            "lat": 47.137148,
            "lng": 8.753002
        },
        "providerInfo": {
            "id": "5414",
            "source": "AVIA"
        }
    },
    {
        "id": "d6312b78-1c55-4cf8-bc54-cfc7891a2354",
        "displayName": "AVIA Tankstelle",
        "brand": "AVIA",
        "formattedAddress": "Zürcherstr. 37, 8840 Einsiedeln",
        "location": {
            "lat": 47.132706,
            "lng": 8.74418
        },
        "providerInfo": {
            "id": "5415",
            "source": "AVIA"
        }
    },
    {
        "id": "dfa0a47e-a7c5-40fd-b5e0-f274fcbd25d2",
        "displayName": "AVIA Tankstelle",
        "brand": "AVIA",
        "formattedAddress": "Bahnhofplatz 18, 8840 Einsiedeln",
        "location": {
            "lat": 47.1282851,
            "lng": 8.74536
        },
        "providerInfo": {
            "id": "5416",
            "source": "AVIA"
        }
    },
    {
        "id": "034445b3-36c9-4fd6-9ab5-87a6cc107705",
        "displayName": "AVIA Tankstelle",
        "brand": "AVIA",
        "formattedAddress": "Badstr. 45, 8867 Niederurnen",
        "location": {
            "lat": 47.129521,
            "lng": 9.050972
        },
        "providerInfo": {
            "id": "5417",
            "source": "AVIA"
        }
    },
    {
        "id": "e8611ca7-338e-40b8-93e6-04664a611eb9",
        "displayName": "AVIA Shop Tankstelle",
        "brand": "AVIA",
        "formattedAddress": "Zürichsstr. 30, 8932 Mettmenstetten",
        "location": {
            "lat": 47.246991,
            "lng": 8.461099
        },
        "providerInfo": {
            "id": "5418",
            "source": "AVIA"
        }
    },
    {
        "id": "4bcfb832-6154-4a9f-8f19-12945b720d56",
        "displayName": "AVIA Tankstelle",
        "brand": "AVIA",
        "formattedAddress": "Alte Landstr. 70, 8942 Oberrieden",
        "location": {
            "lat": 47.271542,
            "lng": 8.580596
        },
        "providerInfo": {
            "id": "5419",
            "source": "AVIA"
        }
    },
    {
        "id": "381de51c-88b7-4fed-a8a7-1bad0446d6ab",
        "displayName": "SPAR express AVIA Biel",
        "brand": "AVIA",
        "formattedAddress": "Brüggstr. 106, 2503 Biel",
        "location": {
            "lat": 47.127454,
            "lng": 7.25778
        },
        "providerInfo": {
            "id": "5420",
            "source": "AVIA"
        }
    },
    {
        "id": "424e282c-9aa8-4001-a4f2-dc032af49ef0",
        "displayName": "AVIA Bern Fellerstrasse",
        "brand": "AVIA",
        "formattedAddress": "Fellerstr. 28, 3027 Bern",
        "location": {
            "lat": 46.9473029,
            "lng": 7.3896251
        },
        "providerInfo": {
            "id": "5422",
            "source": "AVIA"
        }
    },
    {
        "id": "c584cfc9-1861-429a-a7de-b27d288fd360",
        "displayName": "AVIA Büren a.d. Aare",
        "brand": "AVIA",
        "formattedAddress": "Bernstr. 43, 3294 Büren a.d. Aare",
        "location": {
            "lat": 47.1375257,
            "lng": 7.3816701
        },
        "providerInfo": {
            "id": "5423",
            "source": "AVIA"
        }
    },
    {
        "id": "d73814fc-cbe4-4cab-a6eb-c8b54f457c65",
        "displayName": "Avia Herzogenbuchsee",
        "brand": "AVIA",
        "formattedAddress": "Zürichstr. 52, 3360 Herzogenbuchsee",
        "location": {
            "lat": 47.1925416,
            "lng": 7.7094524
        },
        "providerInfo": {
            "id": "5424",
            "source": "AVIA"
        }
    },
    {
        "id": "ce641a9c-4f64-4dd4-b2bd-e0480612508b",
        "displayName": "AVIA Lyssach",
        "brand": "AVIA",
        "formattedAddress": "Dorfstr. 38, 3421 Lyssach",
        "location": {
            "lat": 47.068695,
            "lng": 7.578034
        },
        "providerInfo": {
            "id": "5425",
            "source": "AVIA"
        }
    },
    {
        "id": "4ce6dcbc-f940-4103-9cb0-22d26a79d827",
        "displayName": "SPAR express AVIA Basel-Gellert ",
        "brand": "AVIA",
        "formattedAddress": "St. Alban-Anlage 72, 4052 Basel",
        "location": {
            "lat": 47.55232,
            "lng": 7.604342
        },
        "providerInfo": {
            "id": "5426",
            "source": "AVIA"
        }
    },
    {
        "id": "6cad9063-90df-4eb4-b604-5f7fdd18afad",
        "displayName": "SPAR express AVIA Basel-Giornicostrasse ",
        "brand": "AVIA",
        "formattedAddress": "Giornicostr. 0, 4053 Basel",
        "location": {
            "lat": 47.530106,
            "lng": 7.6053444
        },
        "providerInfo": {
            "id": "5428",
            "source": "AVIA"
        }
    },
    {
        "id": "ae40091f-920a-42d7-8da4-73e54845c0e8",
        "displayName": "SPAR express AVIA Basel-Burgfelden",
        "brand": "AVIA",
        "formattedAddress": "Burgfelderstr. 199, 4055 Basel",
        "location": {
            "lat": 47.5667627,
            "lng": 7.563786
        },
        "providerInfo": {
            "id": "5429",
            "source": "AVIA"
        }
    },
    {
        "id": "4ea2a356-97e9-46bc-9bda-5cee7dadb786",
        "displayName": "SPAR express AVIA Basel-Kannenfeld",
        "brand": "AVIA",
        "formattedAddress": "Kannenfeldplatz 4, 4056 Basel",
        "location": {
            "lat": 47.565652,
            "lng": 7.573847
        },
        "providerInfo": {
            "id": "5430",
            "source": "AVIA"
        }
    },
    {
        "id": "58b4a210-4012-4741-93c2-f729fb2a49c4",
        "displayName": "AVIA Basel Feldbergstr.",
        "brand": "AVIA",
        "formattedAddress": "Feldbergstr. 96, 4057 Basel",
        "location": {
            "lat": 47.566688,
            "lng": 7.594354
        },
        "providerInfo": {
            "id": "5431",
            "source": "AVIA"
        }
    },
    {
        "id": "18adb86b-3c10-46ee-af75-ee86552494ba",
        "displayName": "AVIA Basel Lysbüchel",
        "brand": "AVIA",
        "formattedAddress": "Elsässerstr. 248, 4056 Basel",
        "location": {
            "lat": 47.576418,
            "lng": 7.57313
        },
        "providerInfo": {
            "id": "5432",
            "source": "AVIA"
        }
    },
    {
        "id": "cc68db89-6753-4bb7-9c2d-2db1e4aec70b",
        "displayName": "SPAR express AVIA Binningen",
        "brand": "AVIA",
        "formattedAddress": "Oberwilerstr.  29-31, 4102 Binningen",
        "location": {
            "lat": 47.535129,
            "lng": 7.571844
        },
        "providerInfo": {
            "id": "5434",
            "source": "AVIA"
        }
    },
    {
        "id": "b976951b-8a73-4e12-8915-f1bb5f909752",
        "displayName": "AVIA Metzerlen",
        "brand": "AVIA",
        "formattedAddress": "Challstr. 8, 4116 Metzerlen",
        "location": {
            "lat": 47.46451,
            "lng": 7.463958
        },
        "providerInfo": {
            "id": "5435",
            "source": "AVIA"
        }
    },
    {
        "id": "bef9dac8-0e12-4d07-b8bf-f043936df17d",
        "displayName": "AVIA Rodersdorf",
        "brand": "AVIA",
        "formattedAddress": "Biederthalstr. 51, 4118 Rodersdorf",
        "location": {
            "lat": 47.476079,
            "lng": 7.453523
        },
        "providerInfo": {
            "id": "5436",
            "source": "AVIA"
        }
    },
    {
        "id": "7996d476-cb2f-492c-8716-10aa6e4951d8",
        "displayName": "AVIA Riehen",
        "brand": "AVIA",
        "formattedAddress": "Lörracherstr. 75, 4125 Riehen",
        "location": {
            "lat": 47.592217,
            "lng": 7.653073
        },
        "providerInfo": {
            "id": "5437",
            "source": "AVIA"
        }
    },
    {
        "id": "787d2864-46b4-4e1b-a04f-2cb5c749db71",
        "displayName": "AVIA Muttenz",
        "brand": "AVIA",
        "formattedAddress": "Marschalkenstr. 10, 4132 Muttenz",
        "location": {
            "lat": 47.530734,
            "lng": 7.6505499
        },
        "providerInfo": {
            "id": "5438",
            "source": "AVIA"
        }
    },
    {
        "id": "c7eb1e0b-8fa3-463d-a311-15dbd993a6da",
        "displayName": "AVIA Pratteln",
        "brand": "AVIA",
        "formattedAddress": "Netzibodenstr. 21, 4133 Pratteln",
        "location": {
            "lat": 47.5321105,
            "lng": 7.7030243
        },
        "providerInfo": {
            "id": "5439",
            "source": "AVIA"
        }
    },
    {
        "id": "72436d05-5380-4f5b-9e51-abfc4f4ac459",
        "displayName": "SPAR express AVIA Pratteln",
        "brand": "AVIA",
        "formattedAddress": "Hohenrainstr. 7, 4133 Pratteln",
        "location": {
            "lat": 47.525953,
            "lng": 7.692376
        },
        "providerInfo": {
            "id": "5440",
            "source": "AVIA"
        }
    },
    {
        "id": "bb8abc17-4d25-460e-ba38-7eb62f903129",
        "displayName": "AVIA Dornach",
        "brand": "AVIA",
        "formattedAddress": "Bahnhofstr. 2, 4143 Dornach",
        "location": {
            "lat": 47.485762,
            "lng": 7.612242
        },
        "providerInfo": {
            "id": "5441",
            "source": "AVIA"
        }
    },
    {
        "id": "6cea496d-aade-4ca2-894c-74c27d8bb60a",
        "displayName": "AVIA Hochwald",
        "brand": "AVIA",
        "formattedAddress": "Hauptstr. 21, 4146 Hochwald",
        "location": {
            "lat": 47.457835,
            "lng": 7.640703
        },
        "providerInfo": {
            "id": "5442",
            "source": "AVIA"
        }
    },
    {
        "id": "39224c23-dc24-4a30-b6f8-7ce98437984c",
        "displayName": "SPAR express AVIA Aesch-Angenstein ",
        "brand": "AVIA",
        "formattedAddress": "Baselstr. 22, 4147 Aesch",
        "location": {
            "lat": 47.457369,
            "lng": 7.605545
        },
        "providerInfo": {
            "id": "5443",
            "source": "AVIA"
        }
    },
    {
        "id": "7765ee8a-8f47-4daa-87be-85b3d639ac1e",
        "displayName": "AVIA Reinach",
        "brand": "AVIA",
        "formattedAddress": "Duggingerstr. 24, 4153 Reinach",
        "location": {
            "lat": 47.485327,
            "lng": 7.595536
        },
        "providerInfo": {
            "id": "5444",
            "source": "AVIA"
        }
    },
    {
        "id": "2da67ce9-d5e4-488c-8129-a7054e80e417",
        "displayName": "AVIA Zwingen",
        "brand": "AVIA",
        "formattedAddress": "Baselstr. 31, 4222 Zwingen",
        "location": {
            "lat": 47.439667,
            "lng": 7.536329
        },
        "providerInfo": {
            "id": "5445",
            "source": "AVIA"
        }
    },
    {
        "id": "b400b311-c9ec-4b7e-8f7b-8b5791c1f7f4",
        "displayName": "SPAR express AVIA Zwingen",
        "brand": "AVIA",
        "formattedAddress": "Baselstr. 16, 4222 Zwingen",
        "location": {
            "lat": 47.439208,
            "lng": 7.536209
        },
        "providerInfo": {
            "id": "5446",
            "source": "AVIA"
        }
    },
    {
        "id": "32f72bd5-0753-4b68-906c-64906384869a",
        "displayName": "AVIA Büsserach",
        "brand": "AVIA",
        "formattedAddress": "Grienstr. 7, 4227 Büsserach",
        "location": {
            "lat": 47.394045,
            "lng": 7.539782
        },
        "providerInfo": {
            "id": "5447",
            "source": "AVIA"
        }
    },
    {
        "id": "5a113587-ce5b-4614-9c25-3b1c5290f34b",
        "displayName": "Avia Laufen",
        "brand": "AVIA",
        "formattedAddress": "Delsbergstr. 61, 4242 Laufen",
        "location": {
            "lat": 47.4188367,
            "lng": 7.4997668
        },
        "providerInfo": {
            "id": "5448",
            "source": "AVIA"
        }
    },
    {
        "id": "f83e0e54-4199-4422-881e-eda94227ee9e",
        "displayName": "SPAR express AVIA Augst",
        "brand": "AVIA",
        "formattedAddress": "Rheinstr. 34c, 4302 Augst",
        "location": {
            "lat": 47.534961,
            "lng": 7.709883
        },
        "providerInfo": {
            "id": "5449",
            "source": "AVIA"
        }
    },
    {
        "id": "c7d896b3-98fa-46fa-b161-5e640a95c660",
        "displayName": "SPAR express AVIA Rheinfelden",
        "brand": "AVIA",
        "formattedAddress": "Zürcherstr. 34, 4310 Rheinfelden",
        "location": {
            "lat": 47.551567,
            "lng": 7.803706
        },
        "providerInfo": {
            "id": "5450",
            "source": "AVIA"
        }
    },
    {
        "id": "dc667d75-eb23-4ff5-a991-b0eba72c0fd6",
        "displayName": "AVIA Stein",
        "brand": "AVIA",
        "formattedAddress": "Zürcherstr. 18, 4332 Stein",
        "location": {
            "lat": 47.542655,
            "lng": 7.948639
        },
        "providerInfo": {
            "id": "5452",
            "source": "AVIA"
        }
    },
    {
        "id": "a880d8ec-95c8-4cfb-9776-a15ba974c324",
        "displayName": "SPAR express AVIA Liestal",
        "brand": "AVIA",
        "formattedAddress": "Rheinstr. 107, 4410 Liestal",
        "location": {
            "lat": 47.496606,
            "lng": 7.72325
        },
        "providerInfo": {
            "id": "5453",
            "source": "AVIA"
        }
    },
    {
        "id": "930f3e67-9cb9-4b46-b412-739bacf190e5",
        "displayName": "AVIA Büren",
        "brand": "AVIA",
        "formattedAddress": "Liestalerstr. 41, 4413 Büren",
        "location": {
            "lat": 47.44948,
            "lng": 7.673448
        },
        "providerInfo": {
            "id": "5454",
            "source": "AVIA"
        }
    },
    {
        "id": "16d3aa26-ea77-4bcc-a792-88ab5d6794e2",
        "displayName": "AVIA  Füllinsdorf",
        "brand": "AVIA",
        "formattedAddress": "Uferstr. 10, 4414 Füllinsdorf",
        "location": {
            "lat": 47.51138,
            "lng": 7.72378
        },
        "providerInfo": {
            "id": "5455",
            "source": "AVIA"
        }
    },
    {
        "id": "c798c292-fd82-4ff9-83de-de9d53cdbe0d",
        "displayName": "AVIA Ziefen",
        "brand": "AVIA",
        "formattedAddress": "Hauptstr. 116, 4417 Ziefen",
        "location": {
            "lat": 47.43162,
            "lng": 7.705592
        },
        "providerInfo": {
            "id": "5456",
            "source": "AVIA"
        }
    },
    {
        "id": "a899b0ff-3a5a-4d1c-b071-dd27a24098e5",
        "displayName": "AVIA Waldenburg",
        "brand": "AVIA",
        "formattedAddress": "Hauptstr. 7, 4437 Waldenburg",
        "location": {
            "lat": 47.387123,
            "lng": 7.749631
        },
        "providerInfo": {
            "id": "5457",
            "source": "AVIA"
        }
    },
    {
        "id": "78fd0c3a-92c1-47bb-bc29-7e20bf2b1335",
        "displayName": "AVIA Buckten",
        "brand": "AVIA",
        "formattedAddress": "Weiermatt 1, 4446 Buckten",
        "location": {
            "lat": 47.4154362,
            "lng": 7.8442574
        },
        "providerInfo": {
            "id": "5458",
            "source": "AVIA"
        }
    },
    {
        "id": "1dd79320-ac1e-4767-a559-c31fbea44fd4",
        "displayName": "SPAR express AVIA Sissach",
        "brand": "AVIA",
        "formattedAddress": "Hauptstr. 138, 4450 Sissach",
        "location": {
            "lat": 47.465866,
            "lng": 7.80264
        },
        "providerInfo": {
            "id": "5460",
            "source": "AVIA"
        }
    },
    {
        "id": "feef0b08-043e-4e5b-9510-a41b22d0f611",
        "displayName": "AVIA Zunzgen",
        "brand": "AVIA",
        "formattedAddress": "Hauptstr. 3, 4455 Zunzgen",
        "location": {
            "lat": 47.457028,
            "lng": 7.807314
        },
        "providerInfo": {
            "id": "5461",
            "source": "AVIA"
        }
    },
    {
        "id": "d5a07659-d474-41ed-ac04-b0d545b4ebaa",
        "displayName": "AVIA Ormalingen",
        "brand": "AVIA",
        "formattedAddress": "Haupstr. 175, 4466 Ormalingen",
        "location": {
            "lat": 47.4700503,
            "lng": 7.8688146
        },
        "providerInfo": {
            "id": "5462",
            "source": "AVIA"
        }
    },
    {
        "id": "38b1a16f-cb6b-4eff-91dc-986a7fda5aa7",
        "displayName": "SPAR express AVIA Riedholz",
        "brand": "AVIA",
        "formattedAddress": "Baselstr. 13, 4533 Riedholz",
        "location": {
            "lat": 47.229652,
            "lng": 7.567625
        },
        "providerInfo": {
            "id": "5463",
            "source": "AVIA"
        }
    },
    {
        "id": "c828bd0d-fb18-4491-a836-41ec0192a282",
        "displayName": "AVIA Kestenholz",
        "brand": "AVIA",
        "formattedAddress": "Gäustr. 140, 4703 Kestenholz",
        "location": {
            "lat": 47.283681,
            "lng": 7.755135
        },
        "providerInfo": {
            "id": "5464",
            "source": "AVIA"
        }
    },
    {
        "id": "c63ad7f3-feeb-4f8a-b6ad-293f379a722c",
        "displayName": "AVIA Ehrendingen",
        "brand": "AVIA",
        "formattedAddress": "Landstr. 33, 5420 Ehrendingen",
        "location": {
            "lat": 47.494867,
            "lng": 8.340039
        },
        "providerInfo": {
            "id": "5465",
            "source": "AVIA"
        }
    },
    {
        "id": "20a45b91-8379-4faf-8f1f-a859f06eb801",
        "displayName": "AVIA Reiden",
        "brand": "AVIA",
        "formattedAddress": "Bahnhofstr. 1, 6260 Reiden",
        "location": {
            "lat": 47.242304,
            "lng": 7.970472
        },
        "providerInfo": {
            "id": "5466",
            "source": "AVIA"
        }
    },
    {
        "id": "ef4badca-e0c8-4342-85bd-e9f37cc8ef1d",
        "displayName": "AVIA Tankstelle",
        "brand": "AVIA",
        "formattedAddress": "Strandweg 77, 2513 Twann",
        "location": {
            "lat": 47.1038248,
            "lng": 7.1779928
        },
        "providerInfo": {
            "id": "5536",
            "source": "AVIA"
        }
    },
    {
        "id": "f7189fde-9d8e-4930-becb-aafbcf09a1d1",
        "displayName": "AVIA Tankstelle",
        "brand": "AVIA",
        "formattedAddress": "Güterstr. 1, 3008 Bern",
        "location": {
            "lat": 46.947014,
            "lng": 7.418243
        },
        "providerInfo": {
            "id": "5537",
            "source": "AVIA"
        }
    },
    {
        "id": "a005d0cb-1309-44ef-ad05-fcbb244ede8f",
        "displayName": "Spar express",
        "brand": "AVIA",
        "formattedAddress": "Giacomettistr. 15, 3006 Bern",
        "location": {
            "lat": 46.94512538,
            "lng": 7.47302181
        },
        "providerInfo": {
            "id": "5538",
            "source": "AVIA"
        }
    },
    {
        "id": "ce6a3f7e-14e2-4934-9fe2-e1c9a73642b6",
        "displayName": "AVIA Tankstelle",
        "brand": "AVIA",
        "formattedAddress": "Kochergasse 1, 3011 Bern",
        "location": {
            "lat": 46.9466,
            "lng": 7.44764
        },
        "providerInfo": {
            "id": "5539",
            "source": "AVIA"
        }
    },
    {
        "id": "10e2c1dc-4c18-49f0-8dd1-45d261192921",
        "displayName": "AVIA Tankstelle",
        "brand": "AVIA",
        "formattedAddress": "Neubrückstr. 85, 3012 Bern",
        "location": {
            "lat": 46.957919,
            "lng": 7.436386
        },
        "providerInfo": {
            "id": "5540",
            "source": "AVIA"
        }
    },
    {
        "id": "de6fcf24-28ca-4d59-8f88-8df1d062b974",
        "displayName": "Spar express",
        "brand": "AVIA",
        "formattedAddress": "Papiermühlestr. 11, 3013 Bern",
        "location": {
            "lat": 46.954673,
            "lng": 7.459941
        },
        "providerInfo": {
            "id": "5541",
            "source": "AVIA"
        }
    },
    {
        "id": "10d0cf02-88c0-4d79-a9ec-e750bedd9e7a",
        "displayName": "AVIA Tankstelle",
        "brand": "AVIA",
        "formattedAddress": "Sahlimatte 200, 3036 Detligen",
        "location": {
            "lat": 47.001416,
            "lng": 7.273631
        },
        "providerInfo": {
            "id": "5542",
            "source": "AVIA"
        }
    },
    {
        "id": "6811c6bd-8aa9-48b9-a2e8-ecae985844ad",
        "displayName": "AVIA Tankstelle",
        "brand": "AVIA",
        "formattedAddress": "Freudenreichstr. 17, 3047 Bremgarten",
        "location": {
            "lat": 46.973211,
            "lng": 7.438238
        },
        "providerInfo": {
            "id": "5543",
            "source": "AVIA"
        }
    },
    {
        "id": "76578884-ec02-4ede-a4cc-d8d6af03ad18",
        "displayName": "AVIA Tankstelle",
        "brand": "AVIA",
        "formattedAddress": "Bernstr. 102, 3052 Zollikofen",
        "location": {
            "lat": 46.993574,
            "lng": 7.457525
        },
        "providerInfo": {
            "id": "5544",
            "source": "AVIA"
        }
    },
    {
        "id": "58cf9910-02c5-4721-9c64-a521ec3487da",
        "displayName": "AVIA Tankstelle",
        "brand": "AVIA",
        "formattedAddress": "Bernstr. 45, 3053 Münchenbuchsee",
        "location": {
            "lat": 47.017448,
            "lng": 7.454769
        },
        "providerInfo": {
            "id": "5545",
            "source": "AVIA"
        }
    },
    {
        "id": "ff45fa1d-1783-4391-bbe4-a1645cfe7dbc",
        "displayName": "AVIA Tankstelle",
        "brand": "AVIA",
        "formattedAddress": "Thunstr. 7, 3110 Münsingen",
        "location": {
            "lat": 46.873469,
            "lng": 7.562696
        },
        "providerInfo": {
            "id": "5546",
            "source": "AVIA"
        }
    },
    {
        "id": "bbac6526-f179-4643-8580-f479b0a1a829",
        "displayName": "AVIA Tankstelle",
        "brand": "AVIA",
        "formattedAddress": "Viehweidstr. 12, 3123 Belp",
        "location": {
            "lat": 46.891153,
            "lng": 7.509608
        },
        "providerInfo": {
            "id": "5547",
            "source": "AVIA"
        }
    },
    {
        "id": "ec61bf15-05f7-4481-8985-17e6de5b37d8",
        "displayName": "AVIA Tankstelle",
        "brand": "AVIA",
        "formattedAddress": "Bernstr. 129, 3148 Lanzenhäusern",
        "location": {
            "lat": 46.842528,
            "lng": 7.347891
        },
        "providerInfo": {
            "id": "5548",
            "source": "AVIA"
        }
    },
    {
        "id": "8b933eea-dfb9-49a7-96c2-d0ed95207f23",
        "displayName": "AVIA Tankstelle",
        "brand": "AVIA",
        "formattedAddress": "Thunstr. 104, 3152 Mamishaus",
        "location": {
            "lat": 46.809697,
            "lng": 7.378132
        },
        "providerInfo": {
            "id": "5549",
            "source": "AVIA"
        }
    },
    {
        "id": "9077cff0-8411-4795-b998-2345781def6d",
        "displayName": "AVIA Tankstelle",
        "brand": "AVIA",
        "formattedAddress": "Graben 595, 3154 Rüschegg Heubach",
        "location": {
            "lat": 46.794922,
            "lng": 7.403092
        },
        "providerInfo": {
            "id": "5550",
            "source": "AVIA"
        }
    },
    {
        "id": "5168dd3b-f419-4d36-9983-bb8846f85736",
        "displayName": "Spar express",
        "brand": "AVIA",
        "formattedAddress": "Freiburgstr. 528, 3172 Niederwangen",
        "location": {
            "lat": 46.927419,
            "lng": 7.379717
        },
        "providerInfo": {
            "id": "5551",
            "source": "AVIA"
        }
    },
    {
        "id": "7021f7c8-e7ab-449d-945e-96f3ebe451a7",
        "displayName": "AVIA Tankstelle",
        "brand": "AVIA",
        "formattedAddress": "Freiburgstr. 17, 3175 Flamatt",
        "location": {
            "lat": 46.886521,
            "lng": 7.308873
        },
        "providerInfo": {
            "id": "5552",
            "source": "AVIA"
        }
    },
    {
        "id": "cc153ef5-6a76-4ee4-9c4e-eb2f32adc361",
        "displayName": "AVIA Tankstelle",
        "brand": "AVIA",
        "formattedAddress": "Austr. 8, 3176 Neuenegg",
        "location": {
            "lat": 46.894487,
            "lng": 7.305138
        },
        "providerInfo": {
            "id": "5553",
            "source": "AVIA"
        }
    },
    {
        "id": "5116c848-3f57-4d88-9a24-7de231808365",
        "displayName": "AVIA Tankstelle",
        "brand": "AVIA",
        "formattedAddress": "Freiburgstr. 20, 3178 Bösingen",
        "location": {
            "lat": 46.889977,
            "lng": 7.224347
        },
        "providerInfo": {
            "id": "5554",
            "source": "AVIA"
        }
    },
    {
        "id": "ef769d00-70f1-4bf0-bbb9-03b232973c5a",
        "displayName": "AVIA Tankstelle",
        "brand": "AVIA",
        "formattedAddress": "Lanthen 191, 3185 Schmitten",
        "location": {
            "lat": 46.84791,
            "lng": 7.243714
        },
        "providerInfo": {
            "id": "5555",
            "source": "AVIA"
        }
    },
    {
        "id": "83aaa924-776f-42cd-adcd-06a5a3c8a980",
        "displayName": "AVIA Tankstelle",
        "brand": "AVIA",
        "formattedAddress": "Fräschelsgasse 19, 3210 Kerzers",
        "location": {
            "lat": 46.978495,
            "lng": 7.196974
        },
        "providerInfo": {
            "id": "5556",
            "source": "AVIA"
        }
    },
    {
        "id": "ec6ce6df-be49-44cd-8477-ab7377fa53c5",
        "displayName": "AVIA Tankstelle",
        "brand": "AVIA",
        "formattedAddress": "Bielstr. 27, 3232 Ins",
        "location": {
            "lat": 47.006873,
            "lng": 7.110017
        },
        "providerInfo": {
            "id": "5557",
            "source": "AVIA"
        }
    },
    {
        "id": "684c7c7e-7006-415c-bc04-0d6c64ce2f9c",
        "displayName": "AVIA Tankstelle",
        "brand": "AVIA",
        "formattedAddress": "Im Städtchen 17, 3235 Erlach",
        "location": {
            "lat": 47.043391,
            "lng": 7.096641
        },
        "providerInfo": {
            "id": "5558",
            "source": "AVIA"
        }
    },
    {
        "id": "e928b246-abc0-4b90-8767-44b311acf836",
        "displayName": "AVIA Tankstelle",
        "brand": "AVIA",
        "formattedAddress": "Aarbergerstr. 87, 3250 Lyss",
        "location": {
            "lat": 47.064496,
            "lng": 7.300609
        },
        "providerInfo": {
            "id": "5559",
            "source": "AVIA"
        }
    },
    {
        "id": "395b6423-5fb1-4e8e-9645-d441ce861c7f",
        "displayName": "AVIA Tankstelle",
        "brand": "AVIA",
        "formattedAddress": "Hauptstr. 64, 3252 Worben",
        "location": {
            "lat": 47.094403,
            "lng": 7.290176
        },
        "providerInfo": {
            "id": "5560",
            "source": "AVIA"
        }
    },
    {
        "id": "c8cadf83-b673-4635-84cf-433c2ebf6ea3",
        "displayName": "AVIA Tankstelle",
        "brand": "AVIA",
        "formattedAddress": "Biezwilstr. 3, 3253 Schnottwil",
        "location": {
            "lat": 47.111283,
            "lng": 7.391475
        },
        "providerInfo": {
            "id": "5561",
            "source": "AVIA"
        }
    },
    {
        "id": "a3b5183a-1ff3-4244-b39d-b230bbc8d256",
        "displayName": "AVIA Tankstelle",
        "brand": "AVIA",
        "formattedAddress": "Aarbergstr. 10, 3272 Walperswil",
        "location": {
            "lat": 47.058789,
            "lng": 7.230952
        },
        "providerInfo": {
            "id": "5562",
            "source": "AVIA"
        }
    },
    {
        "id": "3e6bc236-3359-46ce-b747-67fbaea293e4",
        "displayName": "AVIA Tankstelle",
        "brand": "AVIA",
        "formattedAddress": "Alte Freiburgstr. 17, 3280 Murten",
        "location": {
            "lat": 46.924634,
            "lng": 7.115164
        },
        "providerInfo": {
            "id": "5563",
            "source": "AVIA"
        }
    },
    {
        "id": "f3c64000-6db8-44a3-8bb3-08a766c87f09",
        "displayName": "AVIA Tankstelle",
        "brand": "AVIA",
        "formattedAddress": "Oberfeld 4, 3283 Kallnach",
        "location": {
            "lat": 47.018084,
            "lng": 7.234635
        },
        "providerInfo": {
            "id": "5564",
            "source": "AVIA"
        }
    },
    {
        "id": "11229917-bb32-41bc-b2cc-07f69afbb632",
        "displayName": "AVIA Tankstelle",
        "brand": "AVIA",
        "formattedAddress": "Bürenstr. 43, 3297 Leuzigen",
        "location": {
            "lat": 47.17447,
            "lng": 7.448782
        },
        "providerInfo": {
            "id": "5565",
            "source": "AVIA"
        }
    },
    {
        "id": "aec686cc-1783-4070-813c-36c13ed96d23",
        "displayName": "AVIA Tankstelle",
        "brand": "AVIA",
        "formattedAddress": "Lindenstr. 23, 3367 Thörigen",
        "location": {
            "lat": 47.168185,
            "lng": 7.731119
        },
        "providerInfo": {
            "id": "5566",
            "source": "AVIA"
        }
    },
    {
        "id": "bfcb352c-12c4-4758-99b4-9eca765b4e02",
        "displayName": "AVIA Tankstelle",
        "brand": "AVIA",
        "formattedAddress": "Wangenstr. 4, 3372 Wanzwil",
        "location": {
            "lat": 47.200739,
            "lng": 7.69202
        },
        "providerInfo": {
            "id": "5567",
            "source": "AVIA"
        }
    },
    {
        "id": "7b4f668e-7fa5-4176-8b79-b32720f39d5a",
        "displayName": "AVIA Tankstelle",
        "brand": "AVIA",
        "formattedAddress": "Emmentalstr. 1, 3414 Oberburg",
        "location": {
            "lat": 47.04075,
            "lng": 7.624876
        },
        "providerInfo": {
            "id": "5568",
            "source": "AVIA"
        }
    },
    {
        "id": "df36fb6e-4dcf-4361-8796-f58437857a8d",
        "displayName": "AVIA Tankstelle",
        "brand": "AVIA",
        "formattedAddress": "Sumiswaldstr. 50, 3452 Grünenmatt",
        "location": {
            "lat": 47.00586,
            "lng": 7.720887
        },
        "providerInfo": {
            "id": "5569",
            "source": "AVIA"
        }
    },
    {
        "id": "862f658c-82a5-441a-acb1-91279df2b26f",
        "displayName": "AVIA Tankstelle",
        "brand": "AVIA",
        "formattedAddress": "Emmentalstr. 63, 3510 Konolfingen",
        "location": {
            "lat": 46.884341,
            "lng": 7.630511
        },
        "providerInfo": {
            "id": "5570",
            "source": "AVIA"
        }
    },
    {
        "id": "f20007d7-146f-49dc-ba5a-b864210f7095",
        "displayName": "AVIA Tankstelle",
        "brand": "AVIA",
        "formattedAddress": "Dorfstr. 43, 3513 Bigenthal",
        "location": {
            "lat": 46.968043,
            "lng": 7.625439
        },
        "providerInfo": {
            "id": "5571",
            "source": "AVIA"
        }
    },
    {
        "id": "251588f2-99f6-4c4c-a4c5-b6fb6638e6b8",
        "displayName": "AVIA Tankstelle",
        "brand": "AVIA",
        "formattedAddress": "Dorf 3c, 3538 Röthenbach",
        "location": {
            "lat": 46.852035,
            "lng": 7.740747
        },
        "providerInfo": {
            "id": "5572",
            "source": "AVIA"
        }
    },
    {
        "id": "1632d9b5-4f21-412f-8301-2ed99ecda0da",
        "displayName": "AVIA Tankstelle",
        "brand": "AVIA",
        "formattedAddress": "Dorfstr. 79, 3661 Uetendorf",
        "location": {
            "lat": 46.772542,
            "lng": 7.577325
        },
        "providerInfo": {
            "id": "5573",
            "source": "AVIA"
        }
    },
    {
        "id": "e91f382a-2616-4719-b30f-6b0816ee38af",
        "displayName": "AVIA Tankstelle",
        "brand": "AVIA",
        "formattedAddress": "Seftigenstr. 51, 3662 Seftigen",
        "location": {
            "lat": 46.789621,
            "lng": 7.523408
        },
        "providerInfo": {
            "id": "5574",
            "source": "AVIA"
        }
    },
    {
        "id": "77b0ed67-a06e-440c-8d72-1cdfc77f8c75",
        "displayName": "AVIA Tankstelle",
        "brand": "AVIA",
        "formattedAddress": "Burgdorfstr. 33, 3672 Oberdiessbach",
        "location": {
            "lat": 46.844305,
            "lng": 7.619674
        },
        "providerInfo": {
            "id": "5575",
            "source": "AVIA"
        }
    },
    {
        "id": "75054587-0a8a-4191-9f34-d03defdb0d58",
        "displayName": "AVIA Tankstelle",
        "brand": "AVIA",
        "formattedAddress": "Zuben 426a, 3822 Lauterbrunnen",
        "location": {
            "lat": 46.599464,
            "lng": 7.907922
        },
        "providerInfo": {
            "id": "5577",
            "source": "AVIA"
        }
    },
    {
        "id": "da38d761-e8fa-4a12-8ce0-2afb08d55de7",
        "displayName": "AVIA Tankstelle",
        "brand": "AVIA",
        "formattedAddress": "Bielstr. 7, 4512 Bellach",
        "location": {
            "lat": 47.210534,
            "lng": 7.502251
        },
        "providerInfo": {
            "id": "5578",
            "source": "AVIA"
        }
    },
    {
        "id": "6b714d27-bfa0-4837-9148-33b15f876c4f",
        "displayName": "AVIA Tankstelle",
        "brand": "AVIA",
        "formattedAddress": "Solothurnstr. 21, 4536 Attiswil",
        "location": {
            "lat": 47.246681,
            "lng": 7.609869
        },
        "providerInfo": {
            "id": "5579",
            "source": "AVIA"
        }
    },
    {
        "id": "d7b3566f-f95d-411d-a18b-9f0c58938e10",
        "displayName": "AVIA Tankstelle",
        "brand": "AVIA",
        "formattedAddress": "Luzernstr. 42, 4556 Aeschi",
        "location": {
            "lat": 47.180385,
            "lng": 7.665631
        },
        "providerInfo": {
            "id": "5580",
            "source": "AVIA"
        }
    },
    {
        "id": "99d148e4-6c3b-4831-a123-3799622c3a6f",
        "displayName": "AVIA Tankstelle",
        "brand": "AVIA",
        "formattedAddress": "Moosbachstr. 9, 4911 Schwarzhäusern",
        "location": {
            "lat": 47.254036,
            "lng": 7.766054
        },
        "providerInfo": {
            "id": "5581",
            "source": "AVIA"
        }
    },
    {
        "id": "887d304c-441d-4b3f-91e4-e58c9180bdb5",
        "displayName": "AVIA Tankstelle",
        "brand": "AVIA",
        "formattedAddress": "Bernstr. 13, 4923 Wynau",
        "location": {
            "lat": 47.256486,
            "lng": 7.820056
        },
        "providerInfo": {
            "id": "5582",
            "source": "AVIA"
        }
    },
    {
        "id": "3cd17cbf-45ec-418f-8d88-e601bdc80869",
        "displayName": "AVIA Tankstelle",
        "brand": "AVIA",
        "formattedAddress": "Obergasse 32, 4934 Madiswil",
        "location": {
            "lat": 47.161709,
            "lng": 7.795018
        },
        "providerInfo": {
            "id": "5583",
            "source": "AVIA"
        }
    },
    {
        "id": "ad3aed08-33f9-4cf5-b8aa-83bdd8d8d4c9",
        "displayName": "Karin Merkt-Leu",
        "brand": "AVIA",
        "formattedAddress": "Nordstr. 88, 8200 Schaffhausen",
        "location": {
            "lat": 47.704921,
            "lng": 8.627639
        },
        "providerInfo": {
            "id": "5584",
            "source": "AVIA"
        }
    },
    {
        "id": "da0fe5e1-c519-4a16-9f91-f0985a2cfef9",
        "displayName": "AVIA Enge",
        "brand": "AVIA",
        "formattedAddress": "Schaffhauserstr. 249, 8222 Beringen",
        "location": {
            "lat": 47.69364,
            "lng": 8.60611
        },
        "providerInfo": {
            "id": "5585",
            "source": "AVIA"
        }
    },
    {
        "id": "3b1a7235-407d-4301-a93d-f83133d58298",
        "displayName": "Hugo Zangger",
        "brand": "AVIA",
        "formattedAddress": "Stettemerstr. 7, 8235 Lohn",
        "location": {
            "lat": 47.754149,
            "lng": 8.668439
        },
        "providerInfo": {
            "id": "5586",
            "source": "AVIA"
        }
    },
    {
        "id": "72d13fe4-f4a0-4fcf-83d3-7671b6c55a3e",
        "displayName": "AVIA Möve",
        "brand": "AVIA",
        "formattedAddress": "Oehningerstr. 74, 8260 Stein am Rhein",
        "location": {
            "lat": 47.660172,
            "lng": 8.875178
        },
        "providerInfo": {
            "id": "5588",
            "source": "AVIA"
        }
    },
    {
        "id": "465780a9-6a2f-4eca-b703-2d50de63119b",
        "displayName": "Seetankstelle",
        "brand": "AVIA",
        "formattedAddress": "Hafen Steckborn, 8266 Steckborn",
        "location": {
            "lat": 47.668147,
            "lng": 8.981979
        },
        "providerInfo": {
            "id": "5589",
            "source": "AVIA"
        }
    },
    {
        "id": "d3e5fd41-b89d-476e-bb88-e1e69629698c",
        "displayName": "Brunnert-Grimm AG",
        "brand": "AVIA",
        "formattedAddress": "Seetankstelle, 8274 Gottlieben",
        "location": {
            "lat": 47.665116,
            "lng": 9.132269
        },
        "providerInfo": {
            "id": "5590",
            "source": "AVIA"
        }
    },
    {
        "id": "6c472f64-58f4-4c19-a463-4eaad5fc99ca",
        "displayName": "Bösch Sonnenraingarage",
        "brand": "AVIA",
        "formattedAddress": "Hauptstr. 11, 8274 Tägerwilen",
        "location": {
            "lat": 47.659881,
            "lng": 9.122355
        },
        "providerInfo": {
            "id": "5591",
            "source": "AVIA"
        }
    },
    {
        "id": "32db9188-ea57-4c17-a58f-ba0ea2c37859",
        "displayName": "AVIA Rosengarten",
        "brand": "AVIA",
        "formattedAddress": "Konstanzerstr. 65, 8274 Tägerwilen",
        "location": {
            "lat": 47.660244,
            "lng": 9.141874
        },
        "providerInfo": {
            "id": "5592",
            "source": "AVIA"
        }
    },
    {
        "id": "96941e3b-cef3-4010-91db-4c360255fbc8",
        "displayName": "Auto Imhof AG Garage",
        "brand": "AVIA",
        "formattedAddress": "Hauptstr. 131, 8274 Tägerwilen",
        "location": {
            "lat": 47.65285,
            "lng": 9.1455
        },
        "providerInfo": {
            "id": "5593",
            "source": "AVIA"
        }
    },
    {
        "id": "90b0817e-8c0e-463f-880b-9d18ea04406b",
        "displayName": "Lang Energie AG",
        "brand": "AVIA",
        "formattedAddress": "Seestr. 13, 8280 Kreuzlingen",
        "location": {
            "lat": 47.653249,
            "lng": 9.179206
        },
        "providerInfo": {
            "id": "5594",
            "source": "AVIA"
        }
    },
    {
        "id": "0fa8a034-00f2-4d7c-b7b1-1a7a258fc07d",
        "displayName": "Keller AG ",
        "brand": "AVIA",
        "formattedAddress": "Sirnacherstr. 10, 8355 Aadorf",
        "location": {
            "lat": 47.48604,
            "lng": 8.906953
        },
        "providerInfo": {
            "id": "5595",
            "source": "AVIA"
        }
    },
    {
        "id": "e864ba10-5d39-4be4-b10d-52847978c384",
        "displayName": "Binder & Raths",
        "brand": "AVIA",
        "formattedAddress": "Zürichstr. 30, 8413 Neftenbach",
        "location": {
            "lat": 47.52449,
            "lng": 8.65803
        },
        "providerInfo": {
            "id": "5596",
            "source": "AVIA"
        }
    },
    {
        "id": "404db8dc-1da4-4fbf-a0f0-f58d7b844b26",
        "displayName": "Fabrizio Lobrano",
        "brand": "AVIA",
        "formattedAddress": "Sennegasse 10, 8476 Unterstammheim",
        "location": {
            "lat": 47.638246,
            "lng": 8.790301
        },
        "providerInfo": {
            "id": "5597",
            "source": "AVIA"
        }
    },
    {
        "id": "c1e41ceb-ccb5-4b20-8a49-936b90e4d175",
        "displayName": "Spörri Berthi",
        "brand": "AVIA",
        "formattedAddress": "Hauptstr. 52, 8489 Ehrikon-Wildberg",
        "location": {
            "lat": 47.418665,
            "lng": 8.807852
        },
        "providerInfo": {
            "id": "5598",
            "source": "AVIA"
        }
    },
    {
        "id": "5451adc8-b1e3-485f-808d-6fb682f38e83",
        "displayName": "Wilhelm Sport GmbH",
        "brand": "AVIA",
        "formattedAddress": "Zürcherstr. 5, 8500 Frauenfeld",
        "location": {
            "lat": 47.552581,
            "lng": 8.873064
        },
        "providerInfo": {
            "id": "5599",
            "source": "AVIA"
        }
    },
    {
        "id": "ccf08651-ca90-4e65-a9df-57b79e28fedc",
        "displayName": "Grubenmann Max Jun.",
        "brand": "AVIA",
        "formattedAddress": "Schaffhauserstr. 26, 8524 Uesslingen",
        "location": {
            "lat": 47.58092,
            "lng": 8.829188
        },
        "providerInfo": {
            "id": "5600",
            "source": "AVIA"
        }
    },
    {
        "id": "85107302-9599-4b83-987e-233d554d0d8f",
        "displayName": "LEAG Badertscher",
        "brand": "AVIA",
        "formattedAddress": "Hauptstr. 26, 8532 Weiningen",
        "location": {
            "lat": 47.587871,
            "lng": 8.8852
        },
        "providerInfo": {
            "id": "5601",
            "source": "AVIA"
        }
    },
    {
        "id": "95187271-26ee-475a-855a-f95b9dd977c8",
        "displayName": "Garage Burren AG",
        "brand": "AVIA",
        "formattedAddress": "Hauptstr. 33, 8536 Hüttwilen",
        "location": {
            "lat": 47.609739,
            "lng": 8.866975
        },
        "providerInfo": {
            "id": "5602",
            "source": "AVIA"
        }
    },
    {
        "id": "5b781640-2fce-46d9-b890-c1b2763e661f",
        "displayName": "Dorfgarage Hauri AG",
        "brand": "AVIA",
        "formattedAddress": "Kreuzlingerstr. 26, 8566 Neuwilen",
        "location": {
            "lat": 47.621117,
            "lng": 9.134855
        },
        "providerInfo": {
            "id": "5603",
            "source": "AVIA"
        }
    },
    {
        "id": "0f6648f4-dd64-405e-bc8c-834b8329e69d",
        "displayName": "AVIA DC Weinfelden",
        "brand": "AVIA",
        "formattedAddress": "Deucherstr. 39, 8570 Weinfelden",
        "location": {
            "lat": 47.562547,
            "lng": 9.123055
        },
        "providerInfo": {
            "id": "5604",
            "source": "AVIA"
        }
    },
    {
        "id": "8a5b66c8-264f-4715-9fda-baec754120c1",
        "displayName": "Weber Automobile AG",
        "brand": "AVIA",
        "formattedAddress": "Hauptstr. 69, 8572 Berg",
        "location": {
            "lat": 47.582628,
            "lng": 9.168074
        },
        "providerInfo": {
            "id": "5605",
            "source": "AVIA"
        }
    },
    {
        "id": "98c5b0bf-b138-4082-8b3d-1b929759311c",
        "displayName": "Reisch",
        "brand": "AVIA",
        "formattedAddress": "Hauptstr. 24, 8573 Siegershausen",
        "location": {
            "lat": 47.611407,
            "lng": 9.169811
        },
        "providerInfo": {
            "id": "5606",
            "source": "AVIA"
        }
    },
    {
        "id": "6e4ae922-b7d3-460a-b9bf-3e13ed63a755",
        "displayName": "AVIA Seeblick",
        "brand": "AVIA",
        "formattedAddress": "Landstr. 25, 8595 Altnau",
        "location": {
            "lat": 47.61747,
            "lng": 9.26918
        },
        "providerInfo": {
            "id": "5607",
            "source": "AVIA"
        }
    },
    {
        "id": "56e0d9b0-504c-4260-ad62-16e5707267a4",
        "displayName": "Seetankstelle",
        "brand": "AVIA",
        "formattedAddress": "Hafen, 8598 Bottighofen",
        "location": {
            "lat": 47.644121,
            "lng": 9.211106
        },
        "providerInfo": {
            "id": "5608",
            "source": "AVIA"
        }
    },
    {
        "id": "a727ed45-96ae-417c-b3a8-d50822f3a963",
        "displayName": "AVIA Service Station Wildpark",
        "brand": "AVIA",
        "formattedAddress": "St. Gallerstr. 64, 9320 Arbon",
        "location": {
            "lat": 47.51011,
            "lng": 9.4238
        },
        "providerInfo": {
            "id": "5610",
            "source": "AVIA"
        }
    },
    {
        "id": "f6004da8-5e4e-430e-9a57-2eec81658ada",
        "displayName": "Schawalder Garage",
        "brand": "AVIA",
        "formattedAddress": "Thalerstr. 5, 9400 Rorschacherberg",
        "location": {
            "lat": 47.471837,
            "lng": 9.505967
        },
        "providerInfo": {
            "id": "5611",
            "source": "AVIA"
        }
    },
    {
        "id": "ba357ee4-fe7a-4950-aff5-73e2b1e4d6f1",
        "displayName": "AVIA im Rietli",
        "brand": "AVIA",
        "formattedAddress": "Hauptstr. 102, 9422 Staad",
        "location": {
            "lat": 47.484529,
            "lng": 9.548496
        },
        "providerInfo": {
            "id": "5612",
            "source": "AVIA"
        }
    },
    {
        "id": "5822f49d-124b-4774-8ac8-425233e35966",
        "displayName": "Frei GmbH",
        "brand": "AVIA",
        "formattedAddress": "Wilerstr. 48, 9542 Münchwilen",
        "location": {
            "lat": 47.473969,
            "lng": 9.003582
        },
        "providerInfo": {
            "id": "5613",
            "source": "AVIA"
        }
    },
    {
        "id": "6a830e7e-1538-4ea8-b566-4a4869805622",
        "displayName": "Adolf Bachmann AG",
        "brand": "AVIA",
        "formattedAddress": "Wilerstr. 16, 9554 Tägerschen",
        "location": {
            "lat": 47.507718,
            "lng": 9.029509
        },
        "providerInfo": {
            "id": "5614",
            "source": "AVIA"
        }
    },
    {
        "id": "570f2f78-9ca2-453b-9367-cc62bc40e82e",
        "displayName": "Auto-SPA ",
        "brand": "AVIA",
        "formattedAddress": "Rossbodenstr. 18, 7000 Chur",
        "location": {
            "lat": 46.85205,
            "lng": 9.50522
        },
        "providerInfo": {
            "id": "5615",
            "source": "AVIA"
        }
    },
    {
        "id": "fa91b9bc-75ce-4a32-967b-1baec4cf8980",
        "displayName": "SPAR express",
        "brand": "AVIA",
        "formattedAddress": "Emserstr. 2, 7000 Chur",
        "location": {
            "lat": 46.845896,
            "lng": 9.506946
        },
        "providerInfo": {
            "id": "5616",
            "source": "AVIA"
        }
    },
    {
        "id": "11449787-32b2-4483-8db2-3df08fd3cb7f",
        "displayName": "SPAR express",
        "brand": "AVIA",
        "formattedAddress": "Masanserstr. 133, 7000 Chur",
        "location": {
            "lat": 46.861144,
            "lng": 9.53397
        },
        "providerInfo": {
            "id": "5617",
            "source": "AVIA"
        }
    },
    {
        "id": "ba333b94-0746-4eb3-ba69-4dc7813018a5",
        "displayName": "SPAR express",
        "brand": "AVIA",
        "formattedAddress": "Rossbodenstr. 18, 7000 Chur",
        "location": {
            "lat": 46.852445,
            "lng": 9.505083
        },
        "providerInfo": {
            "id": "5618",
            "source": "AVIA"
        }
    },
    {
        "id": "61633f1f-7eff-43c8-bf62-ceb91a5cc918",
        "displayName": "SPAR express",
        "brand": "AVIA",
        "formattedAddress": "Alteinstr. 4, 7050 Arosa",
        "location": {
            "lat": 46.782684,
            "lng": 9.685421
        },
        "providerInfo": {
            "id": "5619",
            "source": "AVIA"
        }
    },
    {
        "id": "325a3534-8bcf-4049-a483-2701f6afb220",
        "displayName": "SPAR express",
        "brand": "AVIA",
        "formattedAddress": "Via Principala 6, 7151 Schluein",
        "location": {
            "lat": 46.782829,
            "lng": 9.221346
        },
        "providerInfo": {
            "id": "5620",
            "source": "AVIA"
        }
    },
    {
        "id": "9c9267c5-e97d-4444-a8e3-2ac7252df4a4",
        "displayName": "Stefan Fontana",
        "brand": "AVIA",
        "formattedAddress": "Plazza Cumin 12a, 7130 Ilanz",
        "location": {
            "lat": 46.773972,
            "lng": 9.204281
        },
        "providerInfo": {
            "id": "5621",
            "source": "AVIA"
        }
    },
    {
        "id": "8b07f20c-f3ae-4812-ae39-d76d80312243",
        "displayName": "S.C. Garage GmbH",
        "brand": "AVIA",
        "formattedAddress": "Rampa  35c, 7145 Degen",
        "location": {
            "lat": 46.711676,
            "lng": 9.162502
        },
        "providerInfo": {
            "id": "5622",
            "source": "AVIA"
        }
    },
    {
        "id": "0aa9941a-9b7b-4e0f-9acf-cbd34dc578f4",
        "displayName": "AVIA Shop Tankstelle",
        "brand": "AVIA",
        "formattedAddress": "Bahnhofsträssli 1, 7203 Trimmis",
        "location": {
            "lat": 46.906106,
            "lng": 9.557382
        },
        "providerInfo": {
            "id": "5624",
            "source": "AVIA"
        }
    },
    {
        "id": "2e32e89e-f107-401e-b814-a374300091c3",
        "displayName": "Walter Mayer",
        "brand": "AVIA",
        "formattedAddress": "Oberaustr. 2, 7203 Trimmis",
        "location": {
            "lat": 46.90782,
            "lng": 9.54922
        },
        "providerInfo": {
            "id": "5625",
            "source": "AVIA"
        }
    },
    {
        "id": "473e3064-c466-4bee-b0bb-ff2193431c0a",
        "displayName": "Automobil fünf Dörfer Juseni",
        "brand": "AVIA",
        "formattedAddress": "Industriestr. 1, 7204 Untervaz",
        "location": {
            "lat": 46.9199,
            "lng": 9.55404
        },
        "providerInfo": {
            "id": "5626",
            "source": "AVIA"
        }
    },
    {
        "id": "146cb2db-98cc-451e-a949-aedff9ed8c70",
        "displayName": "Hans Hartmann & Co.",
        "brand": "AVIA",
        "formattedAddress": "Kantonsstr. 20, 7240 Küblis",
        "location": {
            "lat": 46.913353,
            "lng": 9.767699
        },
        "providerInfo": {
            "id": "5628",
            "source": "AVIA"
        }
    },
    {
        "id": "e91b974f-6542-4eac-a756-536cf65f48a6",
        "displayName": "Auto Wittwer AG",
        "brand": "AVIA",
        "formattedAddress": "Winkelstr. 4, 7250 Klosters",
        "location": {
            "lat": 46.866997,
            "lng": 9.881175
        },
        "providerInfo": {
            "id": "5629",
            "source": "AVIA"
        }
    },
    {
        "id": "ddbff535-8150-49ff-ab25-11d2561909e0",
        "displayName": "Dorfgarage Klosters",
        "brand": "AVIA",
        "formattedAddress": "Kantonsstr. 2, 7252 Klosters-Dorf",
        "location": {
            "lat": 46.885097,
            "lng": 9.873906
        },
        "providerInfo": {
            "id": "5630",
            "source": "AVIA"
        }
    },
    {
        "id": "7e90e9de-15be-4871-8bd5-d200a767f81c",
        "displayName": "Stiffler Logistik AG",
        "brand": "AVIA",
        "formattedAddress": "Mattastr. 50, 7270 Davos-Platz",
        "location": {
            "lat": 46.796537,
            "lng": 9.832677
        },
        "providerInfo": {
            "id": "5632",
            "source": "AVIA"
        }
    },
    {
        "id": "42dea51a-d76d-41c9-af29-bb557903df32",
        "displayName": "AVIA Shop Tankstelle",
        "brand": "AVIA",
        "formattedAddress": "Neue Wangserstr. 8, 7320 Sargans",
        "location": {
            "lat": 47.045466,
            "lng": 9.437787
        },
        "providerInfo": {
            "id": "5633",
            "source": "AVIA"
        }
    },
    {
        "id": "66c0048e-557f-4670-aaf5-f7ab77941796",
        "displayName": "Broder AG",
        "brand": "AVIA",
        "formattedAddress": "St. Gallerstr. 124, 7320 Sargans",
        "location": {
            "lat": 47.058008,
            "lng": 9.453778
        },
        "providerInfo": {
            "id": "5634",
            "source": "AVIA"
        }
    },
    {
        "id": "47a6ac41-08ec-4d16-acf4-7c2d1492eca0",
        "displayName": "Garage Hartmann Sargans AG",
        "brand": "AVIA",
        "formattedAddress": "Zürcherstr. 5, 7320 Sargans",
        "location": {
            "lat": 47.047462,
            "lng": 9.439415
        },
        "providerInfo": {
            "id": "5635",
            "source": "AVIA"
        }
    },
    {
        "id": "14fdd122-9669-4c4c-b7bd-3a74a1903901",
        "displayName": "Auto Decurtins AG",
        "brand": "AVIA",
        "formattedAddress": "Oberdorf 84, 7411 Sils im Domleschg",
        "location": {
            "lat": 46.696925,
            "lng": 9.448661
        },
        "providerInfo": {
            "id": "5636",
            "source": "AVIA"
        }
    },
    {
        "id": "01d9e2b2-7ea3-4e52-8a4d-3731e33e5f10",
        "displayName": "Josua Jaeger",
        "brand": "AVIA",
        "formattedAddress": "Palaweg, 7430 Thusis",
        "location": {
            "lat": 46.70672,
            "lng": 9.440616
        },
        "providerInfo": {
            "id": "5637",
            "source": "AVIA"
        }
    },
    {
        "id": "e41bb4c5-5b9c-4cb9-8086-364e3e286b2a",
        "displayName": "Gaudenz AG",
        "brand": "AVIA",
        "formattedAddress": "Hauptstr. 1b, 7440 Andeer",
        "location": {
            "lat": 46.605174,
            "lng": 9.427398
        },
        "providerInfo": {
            "id": "5639",
            "source": "AVIA"
        }
    },
    {
        "id": "d9b571b0-6b02-4061-83bc-1f419bf4f895",
        "displayName": "AVIA Tankstelle",
        "brand": "AVIA",
        "formattedAddress": "Julierstrasse, 7454 Rona",
        "location": {
            "lat": 46.55722645,
            "lng": 9.62475063
        },
        "providerInfo": {
            "id": "5640",
            "source": "AVIA"
        }
    },
    {
        "id": "5cc15b78-8cde-4710-bf09-64a2a68f7eb3",
        "displayName": "Martin Conrad Transport AG",
        "brand": "AVIA",
        "formattedAddress": "Via Somplaz 37, 7500 St. Moritz",
        "location": {
            "lat": 46.49098,
            "lng": 9.832925
        },
        "providerInfo": {
            "id": "5641",
            "source": "AVIA"
        }
    },
    {
        "id": "564ab4d9-3eb6-4d7c-81f5-e1ebbb539b5b",
        "displayName": "Roseg Garage AG",
        "brand": "AVIA",
        "formattedAddress": "Via Maistra 68, 7504 Pontresina",
        "location": {
            "lat": 46.497527,
            "lng": 9.89843
        },
        "providerInfo": {
            "id": "5642",
            "source": "AVIA"
        }
    },
    {
        "id": "891cc205-f8cf-40c1-a16b-5e311d77f12a",
        "displayName": "Central-Garage Flurin Denoth AG",
        "brand": "AVIA",
        "formattedAddress": "Stradun 270, 7550 Scuol",
        "location": {
            "lat": 46.798752,
            "lng": 10.304489
        },
        "providerInfo": {
            "id": "5644",
            "source": "AVIA"
        }
    },
    {
        "id": "98daab5e-7ed5-4143-b24a-ba83c920e11f",
        "displayName": "Garage Brändle GmbH",
        "brand": "AVIA",
        "formattedAddress": "Hauptstr. 83, 8357 Guntershausen",
        "location": {
            "lat": 47.472248,
            "lng": 8.923966
        },
        "providerInfo": {
            "id": "5645",
            "source": "AVIA"
        }
    },
    {
        "id": "688dd23d-aee7-4ebf-8b9b-74305306594d",
        "displayName": "Garage Max Hug",
        "brand": "AVIA",
        "formattedAddress": "Fischingerstr. 36, 8374 Oberwangen",
        "location": {
            "lat": 47.432727,
            "lng": 8.970351
        },
        "providerInfo": {
            "id": "5646",
            "source": "AVIA"
        }
    },
    {
        "id": "f5e497fe-9710-4c98-9bcb-ac30d4e4e920",
        "displayName": "SPAR express",
        "brand": "AVIA",
        "formattedAddress": "Zürcherstr. 369, 8500 Frauenfeld",
        "location": {
            "lat": 47.569656,
            "lng": 8.917959
        },
        "providerInfo": {
            "id": "5647",
            "source": "AVIA"
        }
    },
    {
        "id": "e97f70e4-c9bb-4c7b-88ef-897370e09911",
        "displayName": "AVIA Shop Tankstelle",
        "brand": "AVIA",
        "formattedAddress": "Bahnhofstr. 43, 8580 Amriswil",
        "location": {
            "lat": 47.549814,
            "lng": 9.302966
        },
        "providerInfo": {
            "id": "5648",
            "source": "AVIA"
        }
    },
    {
        "id": "9a0d88bc-bce1-4bb0-a7fc-c55b9b96f375",
        "displayName": "Metropol-Garage AG",
        "brand": "AVIA",
        "formattedAddress": "Romanshornerstr. 203, 8580 Amriswil",
        "location": {
            "lat": 47.551328,
            "lng": 9.312852
        },
        "providerInfo": {
            "id": "5649",
            "source": "AVIA"
        }
    },
    {
        "id": "59d7849d-f511-4bd6-9484-ebc2c04e0bb7",
        "displayName": "AVIA Shop Tankstelle",
        "brand": "AVIA",
        "formattedAddress": "Kreuzlingerstr. 139, 8587 Oberaach",
        "location": {
            "lat": 47.558429,
            "lng": 9.266495
        },
        "providerInfo": {
            "id": "5650",
            "source": "AVIA"
        }
    },
    {
        "id": "18977f14-dae3-46e8-a3d8-9ea87a3045a3",
        "displayName": "Auto Mächler AG",
        "brand": "AVIA",
        "formattedAddress": "Uznacherstr. 21, 8722 Kaltbrunn",
        "location": {
            "lat": 47.214753,
            "lng": 9.021393
        },
        "providerInfo": {
            "id": "5651",
            "source": "AVIA"
        }
    },
    {
        "id": "42050e51-e5c9-4df7-b3bc-5d40d956b381",
        "displayName": "Jakob Steinmann GmbH",
        "brand": "AVIA",
        "formattedAddress": "Mühle 4, 8752 Näfels",
        "location": {
            "lat": 47.090964,
            "lng": 9.057755
        },
        "providerInfo": {
            "id": "5653",
            "source": "AVIA"
        }
    },
    {
        "id": "8e465e6d-1b9e-4a0a-8f30-bfbfcb588be2",
        "displayName": "AVIA See-Tankstelle",
        "brand": "AVIA",
        "formattedAddress": "Rosengartenstr. 8, 8882 Unterterzen",
        "location": {
            "lat": 47.11259,
            "lng": 9.23936
        },
        "providerInfo": {
            "id": "5654",
            "source": "AVIA"
        }
    },
    {
        "id": "acda0492-4da3-499e-8d62-1dd2fe6310cf",
        "displayName": "Spitzmeilen Garage AG",
        "brand": "AVIA",
        "formattedAddress": "Alte Landstrasse, 8890 Flums",
        "location": {
            "lat": 47.09880669,
            "lng": 9.351151
        },
        "providerInfo": {
            "id": "5655",
            "source": "AVIA"
        }
    },
    {
        "id": "4c1112d1-610c-4221-b92c-8751977eaa36",
        "displayName": "AVIA Tankstelle",
        "brand": "AVIA",
        "formattedAddress": "Bogenstr. 13, 9000 St. Gallen",
        "location": {
            "lat": 47.42013,
            "lng": 9.36455
        },
        "providerInfo": {
            "id": "5656",
            "source": "AVIA"
        }
    },
    {
        "id": "56e12e95-2d4f-4fd3-94ae-962551e3f205",
        "displayName": "AVIA Tankstelle",
        "brand": "AVIA",
        "formattedAddress": "Burgstr. 15, 9000 St. Gallen",
        "location": {
            "lat": 47.419532,
            "lng": 9.364084
        },
        "providerInfo": {
            "id": "5657",
            "source": "AVIA"
        }
    },
    {
        "id": "6e64eea7-2a57-4736-841d-d923d44090ff",
        "displayName": "AVIA Tankstelle",
        "brand": "AVIA",
        "formattedAddress": "St. Georgenstr. 44, 9000 St. Gallen",
        "location": {
            "lat": 47.419286,
            "lng": 9.379889
        },
        "providerInfo": {
            "id": "5658",
            "source": "AVIA"
        }
    },
    {
        "id": "8951bd14-f636-44b8-9dee-8ca461cb7405",
        "displayName": "SPAR express",
        "brand": "AVIA",
        "formattedAddress": "Oberstr. 137, 9000 St. Gallen",
        "location": {
            "lat": 47.41435,
            "lng": 9.35768
        },
        "providerInfo": {
            "id": "5660",
            "source": "AVIA"
        }
    },
    {
        "id": "2ba8ecbc-8d30-4760-999b-652f47169cbc",
        "displayName": "AVIA Tankstelle",
        "brand": "AVIA",
        "formattedAddress": "Langgasse 51, 9008 St. Gallen",
        "location": {
            "lat": 47.437766,
            "lng": 9.388387
        },
        "providerInfo": {
            "id": "5662",
            "source": "AVIA"
        }
    },
    {
        "id": "86ad531b-913b-4035-812a-54b4ed47ca86",
        "displayName": "SPAR express",
        "brand": "AVIA",
        "formattedAddress": "Ikarusstr. 2, 9015 St. Gallen",
        "location": {
            "lat": 47.404081,
            "lng": 9.304528
        },
        "providerInfo": {
            "id": "5663",
            "source": "AVIA"
        }
    },
    {
        "id": "284b1a15-2944-4636-8d07-3360a4c39b68",
        "displayName": "Bild - Garage AG",
        "brand": "AVIA",
        "formattedAddress": "Zürcherstr. 431, 9015 St. Gallen",
        "location": {
            "lat": 47.407066,
            "lng": 9.309655
        },